[
    {
        "SEARCHVAL": "ADMIRALTY PRIMARY SCHOOL",
        "BLK_NO": "11",
        "ROAD_NAME": "WOODLANDS CIRCLE",
        "BUILDING": "ADMIRALTY PRIMARY SCHOOL",
        "ADDRESS": "11 WOODLANDS CIRCLE ADMIRALTY PRIMARY SCHOOL SINGAPORE 738907",
        "POSTAL": "738907",
        "X": "24296.6250855923",
        "Y": "47144.7700594738",
        "LATITUDE": "1.4426347903311",
        "LONGITUDE": "103.800040119743",
        "LONGTITUDE": "103.800040119743"
    },
    {
        "SEARCHVAL": "LIFE STUDENT CARE CENTRE @ AHMAD IBRAHIM",
        "BLK_NO": "10",
        "ROAD_NAME": "YISHUN STREET 11",
        "BUILDING": "LIFE STUDENT CARE CENTRE @ AHMAD IBRAHIM",
        "ADDRESS": "10 YISHUN STREET 11 LIFE STUDENT CARE CENTRE @ AHMAD IBRAHIM SINGAPORE 768643",
        "POSTAL": "768643",
        "X": "27936.7779958136",
        "Y": "46125.1636074763",
        "LATITUDE": "1.43341408412245",
        "LONGITUDE": "103.832750468895",
        "LONGTITUDE": "103.832750468895"
    },
    {
        "SEARCHVAL": "AI TONG SCHOOL",
        "BLK_NO": "100",
        "ROAD_NAME": "BRIGHT HILL DRIVE",
        "BUILDING": "AI TONG SCHOOL",
        "ADDRESS": "100 BRIGHT HILL DRIVE AI TONG SCHOOL SINGAPORE 579646",
        "POSTAL": "579646",
        "X": "27966.8088298785",
        "Y": "38071.9191181567",
        "LATITUDE": "1.3605834338904",
        "LONGITUDE": "103.833020333986",
        "LONGTITUDE": "103.833020333986"
    },
    {
        "SEARCHVAL": "MOE KINDERGARTEN @ ALEXANDRA",
        "BLK_NO": "2A",
        "ROAD_NAME": "PRINCE CHARLES CRESCENT",
        "BUILDING": "MOE KINDERGARTEN @ ALEXANDRA",
        "ADDRESS": "2A PRINCE CHARLES CRESCENT MOE KINDERGARTEN @ ALEXANDRA SINGAPORE 159016",
        "POSTAL": "159016",
        "X": "26964.858994307",
        "Y": "30396.5014853496",
        "LATITUDE": "1.29116965570463",
        "LONGITUDE": "103.824017403629",
        "LONGTITUDE": "103.824017403629"
    },
    {
        "SEARCHVAL": "MOE KINDERGARTEN @ ANCHOR GREEN",
        "BLK_NO": "31",
        "ROAD_NAME": "ANCHORVALE DRIVE",
        "BUILDING": "MOE KINDERGARTEN @ ANCHOR GREEN",
        "ADDRESS": "31 ANCHORVALE DRIVE MOE KINDERGARTEN @ ANCHOR GREEN SINGAPORE 544969",
        "POSTAL": "544969",
        "X": "34022.2468050532",
        "Y": "41380.9286938738",
        "LATITUDE": "1.39050830954652",
        "LONGITUDE": "103.887433162937",
        "LONGTITUDE": "103.887433162937"
    },
    {
        "SEARCHVAL": "ALPHAJOY STUDENT CARE CENTRE (ANDERSON PRIMARY)",
        "BLK_NO": "19",
        "ROAD_NAME": "ANG MO KIO AVENUE 9",
        "BUILDING": "ALPHAJOY STUDENT CARE CENTRE (ANDERSON PRIMARY)",
        "ADDRESS": "19 ANG MO KIO AVENUE 9 ALPHAJOY STUDENT CARE CENTRE (ANDERSON PRIMARY) SINGAPORE 569785",
        "POSTAL": "569785",
        "X": "28900.6627847943",
        "Y": "40683.2561488524",
        "LATITUDE": "1.38419941907925",
        "LONGITUDE": "103.841411716006",
        "LONGTITUDE": "103.841411716006"
    },
    {
        "SEARCHVAL": "MOE KINDERGARTEN @ ANG MO KIO",
        "BLK_NO": "20",
        "ROAD_NAME": "ANG MO KIO AVENUE 3",
        "BUILDING": "MOE KINDERGARTEN @ ANG MO KIO",
        "ADDRESS": "20 ANG MO KIO AVENUE 3 MOE KINDERGARTEN @ ANG MO KIO SINGAPORE 569920",
        "POSTAL": "569920",
        "X": "28710.7679020325",
        "Y": "38969.8104103636",
        "LATITUDE": "1.36870363392975",
        "LONGITUDE": "103.839705325534",
        "LONGTITUDE": "103.839705325534"
    },
    {
        "SEARCHVAL": "EPWORTH STUDENT CARE (ANGLO-CHINESE SCHOOL JUNIOR)",
        "BLK_NO": "16",
        "ROAD_NAME": "WINSTEDT ROAD",
        "BUILDING": "EPWORTH STUDENT CARE (ANGLO-CHINESE SCHOOL JUNIOR)",
        "ADDRESS": "16 WINSTEDT ROAD EPWORTH STUDENT CARE (ANGLO-CHINESE SCHOOL JUNIOR) SINGAPORE 227988",
        "POSTAL": "227988",
        "X": "28916.3166898089",
        "Y": "32403.7520947009",
        "LATITUDE": "1.30932252730174",
        "LONGITUDE": "103.841552127373",
        "LONGTITUDE": "103.841552127373"
    },
    {
        "SEARCHVAL": "MCYC SCC @ ACS (P)",
        "BLK_NO": "50",
        "ROAD_NAME": "BARKER ROAD",
        "BUILDING": "MCYC SCC @ ACS (P)",
        "ADDRESS": "50 BARKER ROAD MCYC SCC @ ACS (P) SINGAPORE 309918",
        "POSTAL": "309918",
        "X": "28225.5395849617",
        "Y": "33442.7207942754",
        "LATITUDE": "1.31871860621788",
        "LONGITUDE": "103.83534516884",
        "LONGTITUDE": "103.83534516884"
    },
    {
        "SEARCHVAL": "LEARNING LEAP PTE LTD [ANGSANA PRIMARY SCHOOL]",
        "BLK_NO": "3",
        "ROAD_NAME": "TAMPINES STREET 22",
        "BUILDING": "LEARNING LEAP PTE LTD [ANGSANA PRIMARY SCHOOL]",
        "ADDRESS": "3 TAMPINES STREET 22 LEARNING LEAP PTE LTD [ANGSANA PRIMARY SCHOOL] SINGAPORE 529366",
        "POSTAL": "529366",
        "X": "41160.8615044914",
        "Y": "36732.3202990014",
        "LATITUDE": "1.34846568919477",
        "LONGITUDE": "103.951577056231",
        "LONGTITUDE": "103.951577056231"
    },
    {
        "SEARCHVAL": "BEACON PRIMARY SCHOOL",
        "BLK_NO": "36",
        "ROAD_NAME": "BUKIT PANJANG RING ROAD",
        "BUILDING": "BEACON PRIMARY SCHOOL",
        "ADDRESS": "36 BUKIT PANJANG RING ROAD BEACON PRIMARY SCHOOL SINGAPORE 679944",
        "POSTAL": "679944",
        "X": "21357.64699852",
        "Y": "40655.688190354",
        "LATITUDE": "1.38394936211823",
        "LONGITUDE": "103.773632022975",
        "LONGTITUDE": "103.773632022975"
    },
    {
        "SEARCHVAL": "BEDOK GREEN PRIMARY SCHOOL",
        "BLK_NO": "1",
        "ROAD_NAME": "BEDOK SOUTH AVENUE 2",
        "BUILDING": "BEDOK GREEN PRIMARY SCHOOL",
        "ADDRESS": "1 BEDOK SOUTH AVENUE 2 BEDOK GREEN PRIMARY SCHOOL SINGAPORE 469317",
        "POSTAL": "469317",
        "X": "39636.5324891713",
        "Y": "33965.6893824711",
        "LATITUDE": "1.32344593287992",
        "LONGITUDE": "103.937878976352",
        "LONGTITUDE": "103.937878976352"
    },
    {
        "SEARCHVAL": "BENDEMEER PRIMARY SCHOOL",
        "BLK_NO": "91",
        "ROAD_NAME": "BENDEMEER ROAD",
        "BUILDING": "BENDEMEER PRIMARY SCHOOL",
        "ADDRESS": "91 BENDEMEER ROAD BENDEMEER PRIMARY SCHOOL SINGAPORE 339948",
        "POSTAL": "339948",
        "X": "31570.8074810533",
        "Y": "33784.8514976725",
        "LATITUDE": "1.32181250780475",
        "LONGITUDE": "103.865404167629",
        "LONGTITUDE": "103.865404167629"
    },
    {
        "SEARCHVAL": "BLANGAH RISE PRIMARY SCHOOL",
        "BLK_NO": "91",
        "ROAD_NAME": "TELOK BLANGAH HEIGHTS",
        "BUILDING": "BLANGAH RISE PRIMARY SCHOOL",
        "ADDRESS": "91 TELOK BLANGAH HEIGHTS BLANGAH RISE PRIMARY SCHOOL SINGAPORE 109100",
        "POSTAL": "109100",
        "X": "25252.1938973861",
        "Y": "28732.4526119996",
        "LATITUDE": "1.27612047924037",
        "LONGITUDE": "103.808628535239",
        "LONGTITUDE": "103.808628535239"
    },
    {
        "SEARCHVAL": "BIG HEART STUDENT CARE (BOON LAY GARDEN PRIMARY SCHOOL)",
        "BLK_NO": "20",
        "ROAD_NAME": "BOON LAY DRIVE",
        "BUILDING": "BIG HEART STUDENT CARE (BOON LAY GARDEN PRIMARY SCHOOL)",
        "ADDRESS": "20 BOON LAY DRIVE BIG HEART STUDENT CARE (BOON LAY GARDEN PRIMARY SCHOOL) SINGAPORE 649930",
        "POSTAL": "649930",
        "X": "14594.0803428125",
        "Y": "36110.2863859087",
        "LATITUDE": "1.34284013791617",
        "LONGITUDE": "103.712858381937",
        "LONGTITUDE": "103.712858381937"
    },
    {
        "SEARCHVAL": "ACE @ WORK ENRICHMENT PTE LTD (BT PANJANG PRIMARY)",
        "BLK_NO": "109",
        "ROAD_NAME": "CASHEW ROAD",
        "BUILDING": "ACE @ WORK ENRICHMENT PTE LTD (BT PANJANG PRIMARY)",
        "ADDRESS": "109 CASHEW ROAD ACE @ WORK ENRICHMENT PTE LTD (BT PANJANG PRIMARY) SINGAPORE 679676",
        "POSTAL": "679676",
        "X": "20888.5750349946",
        "Y": "39500.3618246447",
        "LATITUDE": "1.37350089986584",
        "LONGITUDE": "103.769417337654",
        "LONGTITUDE": "103.769417337654"
    },
    {
        "SEARCHVAL": "AFTERSCHOOL @ BUKIT TIMAH PRIMARY SCHOOL",
        "BLK_NO": "111",
        "ROAD_NAME": "LORONG KISMIS",
        "BUILDING": "AFTERSCHOOL @ BUKIT TIMAH PRIMARY SCHOOL",
        "ADDRESS": "111 LORONG KISMIS AFTERSCHOOL @ BUKIT TIMAH PRIMARY SCHOOL SINGAPORE 598112",
        "POSTAL": "598112",
        "X": "20603.3479896449",
        "Y": "35547.1996132508",
        "LATITUDE": "1.3377498622588",
        "LONGITUDE": "103.766855344779",
        "LONGTITUDE": "103.766855344779"
    },
    {
        "SEARCHVAL": "MCYC SCC @ BVPS",
        "BLK_NO": "18",
        "ROAD_NAME": "BUKIT BATOK STREET 21",
        "BUILDING": "MCYC SCC @ BVPS",
        "ADDRESS": "18 BUKIT BATOK STREET 21 MCYC SCC @ BVPS SINGAPORE 659634",
        "POSTAL": "659634",
        "X": "19095.2098939065",
        "Y": "36487.6660026927",
        "LATITUDE": "1.34625469092492",
        "LONGITUDE": "103.753303575677",
        "LONGTITUDE": "103.753303575677"
    },
    {
        "SEARCHVAL": "CANBERRA PRIMARY SCHOOL",
        "BLK_NO": "21",
        "ROAD_NAME": "ADMIRALTY DRIVE",
        "BUILDING": "CANBERRA PRIMARY SCHOOL",
        "ADDRESS": "21 ADMIRALTY DRIVE CANBERRA PRIMARY SCHOOL SINGAPORE 757714",
        "POSTAL": "757714",
        "X": "26057.0121687725",
        "Y": "48097.4040875677",
        "LATITUDE": "1.45125024371543",
        "LONGITUDE": "103.815858858929",
        "LONGTITUDE": "103.815858858929"
    },
    {
        "SEARCHVAL": "MAGDALENE'S KINDERGARTEN",
        "BLK_NO": "1",
        "ROAD_NAME": "SALLIM ROAD",
        "BUILDING": "MAGDALENE'S KINDERGARTEN",
        "ADDRESS": "1 SALLIM ROAD MAGDALENE'S KINDERGARTEN SINGAPORE 387621",
        "POSTAL": "387621",
        "X": "33306.6919957874",
        "Y": "34342.288811706",
        "LATITUDE": "1.32685351993336",
        "LONGITUDE": "103.881002098815",
        "LONGTITUDE": "103.881002098815"
    },
    {
        "SEARCHVAL": "KIDZ TREEHOUSE @ CANTONMENT",
        "BLK_NO": "1",
        "ROAD_NAME": "CANTONMENT CLOSE",
        "BUILDING": "KIDZ TREEHOUSE @ CANTONMENT",
        "ADDRESS": "1 CANTONMENT CLOSE KIDZ TREEHOUSE @ CANTONMENT SINGAPORE 088256",
        "POSTAL": "088256",
        "X": "28748.1620587641",
        "Y": "28659.9995642845",
        "LATITUDE": "1.27546534984202",
        "LONGITUDE": "103.840041087946",
        "LONGTITUDE": "103.840041087946"
    },
    {
        "SEARCHVAL": "NASCANS @ CASUARINA PRIMARY",
        "BLK_NO": "30",
        "ROAD_NAME": "PASIR RIS STREET 41",
        "BUILDING": "NASCANS @ CASUARINA PRIMARY",
        "ADDRESS": "30 PASIR RIS STREET 41 NASCANS @ CASUARINA PRIMARY SINGAPORE 518935",
        "POSTAL": "518935",
        "X": "41776.7314032353",
        "Y": "39457.149041526",
        "LATITUDE": "1.37310773436801",
        "LONGITUDE": "103.957112275692",
        "LONGTITUDE": "103.957112275692"
    },
    {
        "SEARCHVAL": "BIG HEART STUDENT CARE (CEDAR PRIMARY SCHOOL)",
        "BLK_NO": "15",
        "ROAD_NAME": "CEDAR AVENUE",
        "BUILDING": "BIG HEART STUDENT CARE (CEDAR PRIMARY SCHOOL)",
        "ADDRESS": "15 CEDAR AVENUE BIG HEART STUDENT CARE (CEDAR PRIMARY SCHOOL) SINGAPORE 349700",
        "POSTAL": "349700",
        "X": "32707.7091499828",
        "Y": "35316.1469013225",
        "LATITUDE": "1.33566084356265",
        "LONGITUDE": "103.87562006259",
        "LONGTITUDE": "103.87562006259"
    },
    {
        "SEARCHVAL": "LEARNING STUDIO EDUCARE @ CHANGKAT PRIMARY SCHOOL",
        "BLK_NO": "11",
        "ROAD_NAME": "SIMEI STREET 3",
        "BUILDING": "LEARNING STUDIO EDUCARE @ CHANGKAT PRIMARY SCHOOL",
        "ADDRESS": "11 SIMEI STREET 3 LEARNING STUDIO EDUCARE @ CHANGKAT PRIMARY SCHOOL SINGAPORE 529896",
        "POSTAL": "529896",
        "X": "41238.4638929376",
        "Y": "35793.2822557092",
        "LATITUDE": "1.33997334692002",
        "LONGITUDE": "103.952273949753",
        "LONGTITUDE": "103.952273949753"
    },
    {
        "SEARCHVAL": "NASCANS @ CHIJ KATONG",
        "BLK_NO": "17",
        "ROAD_NAME": "MARTIA ROAD",
        "BUILDING": "NASCANS @ CHIJ KATONG",
        "ADDRESS": "17 MARTIA ROAD NASCANS @ CHIJ KATONG SINGAPORE 424821",
        "POSTAL": "424821",
        "X": "36656.9036827311",
        "Y": "32108.3319426198",
        "LATITUDE": "1.30664965374234",
        "LONGITUDE": "103.911104935556",
        "LONGTITUDE": "103.911104935556"
    },
    {
        "SEARCHVAL": "CHIJ (KELLOCK)",
        "BLK_NO": "1",
        "ROAD_NAME": "BUKIT TERESA ROAD",
        "BUILDING": "CHIJ (KELLOCK)",
        "ADDRESS": "1 BUKIT TERESA ROAD CHIJ (KELLOCK) SINGAPORE 099757",
        "POSTAL": "099757",
        "X": "27425.6197932558",
        "Y": "28611.0557805933",
        "LATITUDE": "1.275022722964",
        "LONGITUDE": "103.828157564896",
        "LONGTITUDE": "103.828157564896"
    },
    {
        "SEARCHVAL": "CHIJ OUR LADY OF GOOD COUNSEL",
        "BLK_NO": "2C",
        "ROAD_NAME": "BURGHLEY DRIVE",
        "BUILDING": "CHIJ OUR LADY OF GOOD COUNSEL",
        "ADDRESS": "2C BURGHLEY DRIVE CHIJ OUR LADY OF GOOD COUNSEL SINGAPORE 558979",
        "POSTAL": "558979",
        "X": "31415.5340866428",
        "Y": "37723.1973494291",
        "LATITUDE": "1.35742952269615",
        "LONGITUDE": "103.864009397373",
        "LONGTITUDE": "103.864009397373"
    },
    {
        "SEARCHVAL": "CHIJ OUR LADY OF THE NATIVITY",
        "BLK_NO": "1257",
        "ROAD_NAME": "UPPER SERANGOON ROAD",
        "BUILDING": "CHIJ OUR LADY OF THE NATIVITY",
        "ADDRESS": "1257 UPPER SERANGOON ROAD CHIJ OUR LADY OF THE NATIVITY SINGAPORE 534793",
        "POSTAL": "534793",
        "X": "35151.0338091562",
        "Y": "39478.4768616967",
        "LATITUDE": "1.37330297140128",
        "LONGITUDE": "103.897575728303",
        "LONGTITUDE": "103.897575728303"
    },
    {
        "SEARCHVAL": "CHIJ OUR LADY QUEEN OF PEACE",
        "BLK_NO": "4",
        "ROAD_NAME": "CHESTNUT DRIVE",
        "BUILDING": "CHIJ OUR LADY QUEEN OF PEACE",
        "ADDRESS": "4 CHESTNUT DRIVE CHIJ OUR LADY QUEEN OF PEACE SINGAPORE 679287",
        "POSTAL": "679287",
        "X": "20665.4072236279",
        "Y": "38737.7066427004",
        "LATITUDE": "1.366603668561",
        "LONGITUDE": "103.767412204602",
        "LONGTITUDE": "103.767412204602"
    },
    {
        "SEARCHVAL": "CHIJ PRIMARY (TOA PAYOH)",
        "BLK_NO": "628",
        "ROAD_NAME": "LORONG 1 TOA PAYOH",
        "BUILDING": "CHIJ PRIMARY (TOA PAYOH)",
        "ADDRESS": "628 LORONG 1 TOA PAYOH CHIJ PRIMARY (TOA PAYOH) SINGAPORE 319765",
        "POSTAL": "319765",
        "X": "28949.1537291808",
        "Y": "34994.5345916729",
        "LATITUDE": "1.33275264711587",
        "LONGITUDE": "103.841847263786",
        "LONGTITUDE": "103.841847263786"
    },
    {
        "SEARCHVAL": "CHONGFU SCHOOL",
        "BLK_NO": "170",
        "ROAD_NAME": "YISHUN AVENUE 6",
        "BUILDING": "CHONGFU SCHOOL",
        "ADDRESS": "170 YISHUN AVENUE 6 CHONGFU SCHOOL SINGAPORE 768959",
        "POSTAL": "768959",
        "X": "28666.6613053558",
        "Y": "46675.9986570273",
        "LATITUDE": "1.43839562897006",
        "LONGITUDE": "103.839309173817",
        "LONGTITUDE": "103.839309173817"
    },
    {
        "SEARCHVAL": "BIG HEART STUDENT CARE (CHONGZHENG PRIMARY SCHOOL)",
        "BLK_NO": "1",
        "ROAD_NAME": "TAMPINES STREET 21",
        "BUILDING": "BIG HEART STUDENT CARE (CHONGZHENG PRIMARY SCHOOL)",
        "ADDRESS": "1 TAMPINES STREET 21 BIG HEART STUDENT CARE (CHONGZHENG PRIMARY SCHOOL) SINGAPORE 529392",
        "POSTAL": "529392",
        "X": "41131.9416870372",
        "Y": "36969.5707135443",
        "LATITUDE": "1.35061130568554",
        "LONGITUDE": "103.951317297552",
        "LONGTITUDE": "103.951317297552"
    },
    {
        "SEARCHVAL": "CHUA CHU KANG PRIMARY SCHOOL",
        "BLK_NO": "20",
        "ROAD_NAME": "CHOA CHU KANG AVENUE 2",
        "BUILDING": "CHUA CHU KANG PRIMARY SCHOOL",
        "ADDRESS": "20 CHOA CHU KANG AVENUE 2 CHUA CHU KANG PRIMARY SCHOOL SINGAPORE 689905",
        "POSTAL": "689905",
        "X": "17818.7829598142",
        "Y": "39971.2903354876",
        "LATITUDE": "1.37775890093367",
        "LONGITUDE": "103.741832917421",
        "LONGTITUDE": "103.741832917421"
    },
    {
        "SEARCHVAL": "NASCANS CLEMENTI STUDENT CARE CENTRE",
        "BLK_NO": "8",
        "ROAD_NAME": "CLEMENTI AVENUE 3",
        "BUILDING": "NASCANS CLEMENTI STUDENT CARE CENTRE",
        "ADDRESS": "8 CLEMENTI AVENUE 3 NASCANS CLEMENTI STUDENT CARE CENTRE SINGAPORE 129903",
        "POSTAL": "129903",
        "X": "20170.5088003157",
        "Y": "33037.9840960354",
        "LATITUDE": "1.31505731320501",
        "LONGITUDE": "103.762966674996",
        "LONGTITUDE": "103.762966674996"
    },
    {
        "SEARCHVAL": "COMPASSVALE PRIMARY SCHOOL",
        "BLK_NO": "21",
        "ROAD_NAME": "COMPASSVALE STREET",
        "BUILDING": "COMPASSVALE PRIMARY SCHOOL",
        "ADDRESS": "21 COMPASSVALE STREET COMPASSVALE PRIMARY SCHOOL SINGAPORE 545091",
        "POSTAL": "545091",
        "X": "35177.2900137762",
        "Y": "41816.2900234833",
        "LATITUDE": "1.39444529636566",
        "LONGITUDE": "103.897812229905",
        "LONGTITUDE": "103.897812229905"
    },
    {
        "SEARCHVAL": "BIG HEART STUDENT CARE (CONCORD PRIMARY SCHOOL)",
        "BLK_NO": "3",
        "ROAD_NAME": "CHOA CHU KANG AVENUE 4",
        "BUILDING": "BIG HEART STUDENT CARE (CONCORD PRIMARY SCHOOL)",
        "ADDRESS": "3 CHOA CHU KANG AVENUE 4 BIG HEART STUDENT CARE (CONCORD PRIMARY SCHOOL) SINGAPORE 689814",
        "POSTAL": "689814",
        "X": "17231.3486815896",
        "Y": "40248.4434567168",
        "LATITUDE": "1.38026516111464",
        "LONGITUDE": "103.736554295636",
        "LONGTITUDE": "103.736554295636"
    },
    {
        "SEARCHVAL": "ACE @ WORK ENRICHMENT PTE LTD (CORPORATION PRIMARY)",
        "BLK_NO": "31",
        "ROAD_NAME": "JURONG WEST STREET 24",
        "BUILDING": "ACE @ WORK ENRICHMENT PTE LTD (CORPORATION PRIMARY)",
        "ADDRESS": "31 JURONG WEST STREET 24 ACE @ WORK ENRICHMENT PTE LTD (CORPORATION PRIMARY) SINGAPORE 648347",
        "POSTAL": "648347",
        "X": "14006.5242964895",
        "Y": "37066.276891252",
        "LATITUDE": "1.35148548772662",
        "LONGITUDE": "103.707578404944",
        "LONGTITUDE": "103.707578404944"
    },
    {
        "SEARCHVAL": "BIG HEART STUDENT CARE @ DAMAI",
        "BLK_NO": "52",
        "ROAD_NAME": "BEDOK RESERVOIR CRESCENT",
        "BUILDING": "BIG HEART STUDENT CARE @ DAMAI",
        "ADDRESS": "52 BEDOK RESERVOIR CRESCENT BIG HEART STUDENT CARE @ DAMAI SINGAPORE 479226",
        "POSTAL": "479226",
        "X": "37789.8996013105",
        "Y": "35270.4133399837",
        "LATITUDE": "1.33524602829747",
        "LONGITUDE": "103.921286435321",
        "LONGTITUDE": "103.921286435321"
    },
    {
        "SEARCHVAL": "MOE KINDERGARTEN @ DAZHONG",
        "BLK_NO": "35",
        "ROAD_NAME": "BUKIT BATOK STREET 31",
        "BUILDING": "MOE KINDERGARTEN @ DAZHONG",
        "ADDRESS": "35 BUKIT BATOK STREET 31 MOE KINDERGARTEN @ DAZHONG SINGAPORE 659441",
        "POSTAL": "659441",
        "X": "18534.5662015537",
        "Y": "37941.6096065342",
        "LATITUDE": "1.35940345327924",
        "LONGITUDE": "103.748265393745",
        "LONGTITUDE": "103.748265393745"
    },
    {
        "SEARCHVAL": "DE LA SALLE SCHOOL",
        "BLK_NO": "11",
        "ROAD_NAME": "CHOA CHU KANG STREET 52",
        "BUILDING": "DE LA SALLE SCHOOL",
        "ADDRESS": "11 CHOA CHU KANG STREET 52 DE LA SALLE SCHOOL SINGAPORE 689285",
        "POSTAL": "689285",
        "X": "17971.195454672",
        "Y": "41845.4133931287",
        "LATITUDE": "1.3947078296399",
        "LONGITUDE": "103.743201812831",
        "LONGTITUDE": "103.743201812831"
    },
    {
        "SEARCHVAL": "NASCANS @ EAST SPRING",
        "BLK_NO": "31",
        "ROAD_NAME": "TAMPINES STREET 33",
        "BUILDING": "NASCANS @ EAST SPRING",
        "ADDRESS": "31 TAMPINES STREET 33 NASCANS @ EAST SPRING SINGAPORE 529258",
        "POSTAL": "529258",
        "X": "42292.2109052921",
        "Y": "37208.3428207003",
        "LATITUDE": "1.35277013841942",
        "LONGITUDE": "103.961743139539",
        "LONGTITUDE": "103.961743139539"
    },
    {
        "SEARCHVAL": "EDGEFIELD PRIMARY SCHOOL",
        "BLK_NO": "41",
        "ROAD_NAME": "EDGEFIELD PLAINS",
        "BUILDING": "EDGEFIELD PRIMARY SCHOOL",
        "ADDRESS": "41 EDGEFIELD PLAINS EDGEFIELD PRIMARY SCHOOL SINGAPORE 828869",
        "POSTAL": "828869",
        "X": "36294.0746121518",
        "Y": "42440.6405269764",
        "LATITUDE": "1.40009139510996",
        "LONGITUDE": "103.907847599114",
        "LONGTITUDE": "103.907847599114"
    },
    {
        "SEARCHVAL": "AFTERSCHOOL @ ELIAS PARK PRIMARY SCHOOL",
        "BLK_NO": "11",
        "ROAD_NAME": "PASIR RIS STREET 52",
        "BUILDING": "AFTERSCHOOL @ ELIAS PARK PRIMARY SCHOOL",
        "ADDRESS": "11 PASIR RIS STREET 52 AFTERSCHOOL @ ELIAS PARK PRIMARY SCHOOL SINGAPORE 518866",
        "POSTAL": "518866",
        "X": "40460.9792755861",
        "Y": "39672.6204007976",
        "LATITUDE": "1.37505696315817",
        "LONGITUDE": "103.945289416873",
        "LONGTITUDE": "103.945289416873"
    },
    {
        "SEARCHVAL": "ENDEAVOUR PRIMARY SCHOOL",
        "BLK_NO": "10",
        "ROAD_NAME": "ADMIRALTY LINK",
        "BUILDING": "ENDEAVOUR PRIMARY SCHOOL",
        "ADDRESS": "10 ADMIRALTY LINK ENDEAVOUR PRIMARY SCHOOL SINGAPORE 757521",
        "POSTAL": "757521",
        "X": "26232.5507349819",
        "Y": "48405.7003912628",
        "LATITUDE": "1.45403837499301",
        "LONGITUDE": "103.817436231731",
        "LONGTITUDE": "103.817436231731"
    },
    {
        "SEARCHVAL": "EUNOS CAREHUT",
        "BLK_NO": "95",
        "ROAD_NAME": "JALAN EUNOS",
        "BUILDING": "EUNOS CAREHUT",
        "ADDRESS": "95 JALAN EUNOS EUNOS CAREHUT SINGAPORE 419529",
        "POSTAL": "419529",
        "X": "35907.8444855893",
        "Y": "34069.7666011825",
        "LATITUDE": "1.32438836310047",
        "LONGITUDE": "103.904374791251",
        "LONGTITUDE": "103.904374791251"
    },
    {
        "SEARCHVAL": "BIG HEART STUDENT CARE @ EVERGREEN",
        "BLK_NO": "31",
        "ROAD_NAME": "WOODLANDS CIRCLE",
        "BUILDING": "BIG HEART STUDENT CARE @ EVERGREEN",
        "ADDRESS": "31 WOODLANDS CIRCLE BIG HEART STUDENT CARE @ EVERGREEN SINGAPORE 738908",
        "POSTAL": "738908",
        "X": "23685.1394134862",
        "Y": "47312.1421118006",
        "LATITUDE": "1.44414835451585",
        "LONGITUDE": "103.794545295922",
        "LONGTITUDE": "103.794545295922"
    },
    {
        "SEARCHVAL": "FAIRFIELD METHODIST SCHOOL (PRIMARY)",
        "BLK_NO": "100",
        "ROAD_NAME": "DOVER ROAD",
        "BUILDING": "FAIRFIELD METHODIST SCHOOL (PRIMARY)",
        "ADDRESS": "100 DOVER ROAD FAIRFIELD METHODIST SCHOOL (PRIMARY) SINGAPORE 139648",
        "POSTAL": "139648",
        "X": "22671.3515878748",
        "Y": "31432.7656800412",
        "LATITUDE": "1.30054082453424",
        "LONGITUDE": "103.785438270044",
        "LONGTITUDE": "103.785438270044"
    },
    {
        "SEARCHVAL": "MOE KINDERGARTEN @ FARRER PARK",
        "BLK_NO": "2",
        "ROAD_NAME": "FARRER PARK ROAD",
        "BUILDING": "MOE KINDERGARTEN @ FARRER PARK",
        "ADDRESS": "2 FARRER PARK ROAD MOE KINDERGARTEN @ FARRER PARK SINGAPORE 217567",
        "POSTAL": "217567",
        "X": "29917.0852870485",
        "Y": "32693.1287898142",
        "LATITUDE": "1.31193950204473",
        "LONGITUDE": "103.850544534433",
        "LONGTITUDE": "103.850544534433"
    },
    {
        "SEARCHVAL": "MOE KINDERGARTEN @ FENGSHAN",
        "BLK_NO": "307",
        "ROAD_NAME": "BEDOK NORTH ROAD",
        "BUILDING": "MOE KINDERGARTEN @ FENGSHAN",
        "ADDRESS": "307 BEDOK NORTH ROAD MOE KINDERGARTEN @ FENGSHAN SINGAPORE 469680",
        "POSTAL": "469680",
        "X": "38982.7967979731",
        "Y": "34657.410485195",
        "LATITUDE": "1.32970184654986",
        "LONGITUDE": "103.932005069334",
        "LONGTITUDE": "103.932005069334"
    },
    {
        "SEARCHVAL": "MOE KINDERGARTEN @ FERN GREEN",
        "BLK_NO": "70",
        "ROAD_NAME": "FERNVALE LINK",
        "BUILDING": "MOE KINDERGARTEN @ FERN GREEN",
        "ADDRESS": "70 FERNVALE LINK MOE KINDERGARTEN @ FERN GREEN SINGAPORE 797538",
        "POSTAL": "797538",
        "X": "33210.2900113147",
        "Y": "42134.1007954478",
        "LATITUDE": "1.39731988228585",
        "LONGITUDE": "103.880137234155",
        "LONGTITUDE": "103.880137234155"
    },
    {
        "SEARCHVAL": "MOE KINDERGARTEN @ FERNVALE",
        "BLK_NO": "1",
        "ROAD_NAME": "FERNVALE LANE",
        "BUILDING": "MOE KINDERGARTEN @ FERNVALE",
        "ADDRESS": "1 FERNVALE LANE MOE KINDERGARTEN @ FERNVALE SINGAPORE 797701",
        "POSTAL": "797701",
        "X": "32537.1710060248",
        "Y": "41287.4380051475",
        "LATITUDE": "1.38966308328476",
        "LONGITUDE": "103.874088586824",
        "LONGTITUDE": "103.874088586824"
    },
    {
        "SEARCHVAL": "MOE KINDERGARTEN @ FIRST TOA PAYOH",
        "BLK_NO": "7",
        "ROAD_NAME": "LORONG 8 TOA PAYOH",
        "BUILDING": "MOE KINDERGARTEN @ FIRST TOA PAYOH",
        "ADDRESS": "7 LORONG 8 TOA PAYOH MOE KINDERGARTEN @ FIRST TOA PAYOH SINGAPORE 319252",
        "POSTAL": "319252",
        "X": "30543.7338872049",
        "Y": "35811.7035927437",
        "LATITUDE": "1.34014274139827",
        "LONGITUDE": "103.856175538933",
        "LONGTITUDE": "103.856175538933"
    },
    {
        "SEARCHVAL": "MOE KINDERGARTEN @ FRONTIER",
        "BLK_NO": "20",
        "ROAD_NAME": "JURONG WEST STREET 61",
        "BUILDING": "MOE KINDERGARTEN @ FRONTIER",
        "ADDRESS": "20 JURONG WEST STREET 61 MOE KINDERGARTEN @ FRONTIER SINGAPORE 648200",
        "POSTAL": "648200",
        "X": "13126.4445019821",
        "Y": "35488.2521096021",
        "LATITUDE": "1.33721400626256",
        "LONGITUDE": "103.699671124954",
        "LONGTITUDE": "103.699671124954"
    },
    {
        "SEARCHVAL": "FUCHUN PRIMARY SCHOOL",
        "BLK_NO": "23",
        "ROAD_NAME": "WOODLANDS AVENUE 1",
        "BUILDING": "FUCHUN PRIMARY SCHOOL",
        "ADDRESS": "23 WOODLANDS AVENUE 1 FUCHUN PRIMARY SCHOOL SINGAPORE 739063",
        "POSTAL": "739063",
        "X": "21865.3411816815",
        "Y": "45800.7908879817",
        "LATITUDE": "1.43047990810126",
        "LONGITUDE": "103.778192944298",
        "LONGTITUDE": "103.778192944298"
    },
    {
        "SEARCHVAL": "FUHUA PRIMARY SCHOOL",
        "BLK_NO": "65",
        "ROAD_NAME": "JURONG EAST STREET 13",
        "BUILDING": "FUHUA PRIMARY SCHOOL",
        "ADDRESS": "65 JURONG EAST STREET 13 FUHUA PRIMARY SCHOOL SINGAPORE 609647",
        "POSTAL": "609647",
        "X": "17181.0134181511",
        "Y": "35409.5467255618",
        "LATITUDE": "1.33650394789627",
        "LONGITUDE": "103.736103745748",
        "LONGTITUDE": "103.736103745748"
    },
    {
        "SEARCHVAL": "GAN ENG SENG PRIMARY SCHOOL",
        "BLK_NO": "100",
        "ROAD_NAME": "REDHILL CLOSE",
        "BUILDING": "GAN ENG SENG PRIMARY SCHOOL",
        "ADDRESS": "100 REDHILL CLOSE GAN ENG SENG PRIMARY SCHOOL SINGAPORE 158901",
        "POSTAL": "158901",
        "X": "26022.2170935348",
        "Y": "29780.10807156",
        "LATITUDE": "1.28559516494962",
        "LONGITUDE": "103.815547410064",
        "LONGTITUDE": "103.815547410064"
    },
    {
        "SEARCHVAL": "GEYLANG METHODIST SCHOOL (PRIMARY)",
        "BLK_NO": "4",
        "ROAD_NAME": "GEYLANG EAST CENTRAL",
        "BUILDING": "GEYLANG METHODIST SCHOOL (PRIMARY)",
        "ADDRESS": "4 GEYLANG EAST CENTRAL GEYLANG METHODIST SCHOOL (PRIMARY) SINGAPORE 389706",
        "POSTAL": "389706",
        "X": "33623.1818729434",
        "Y": "33318.1223668903",
        "LATITUDE": "1.31759126757284",
        "LONGITUDE": "103.883845744916",
        "LONGTITUDE": "103.883845744916"
    },
    {
        "SEARCHVAL": "MOE KINDERGARTEN @ GONGSHANG",
        "BLK_NO": "1",
        "ROAD_NAME": "TAMPINES STREET 42",
        "BUILDING": "MOE KINDERGARTEN @ GONGSHANG",
        "ADDRESS": "1 TAMPINES STREET 42 MOE KINDERGARTEN @ GONGSHANG SINGAPORE 529176",
        "POSTAL": "529176",
        "X": "40900.4946135487",
        "Y": "37684.3217867706",
        "LATITUDE": "1.35707534737744",
        "LONGITUDE": "103.949237910522",
        "LONGTITUDE": "103.949237910522"
    },
    {
        "SEARCHVAL": "MOE KINDERGARTEN @ GREENDALE",
        "BLK_NO": "50",
        "ROAD_NAME": "EDGEDALE PLAINS",
        "BUILDING": "MOE KINDERGARTEN @ GREENDALE",
        "ADDRESS": "50 EDGEDALE PLAINS MOE KINDERGARTEN @ GREENDALE SINGAPORE 828848",
        "POSTAL": "828848",
        "X": "36869.7601908892",
        "Y": "41988.4874885771",
        "LATITUDE": "1.39600211828423",
        "LONGITUDE": "103.913020462134",
        "LONGTITUDE": "103.913020462134"
    },
    {
        "SEARCHVAL": "GREENRIDGE PRIMARY SCHOOL",
        "BLK_NO": "11",
        "ROAD_NAME": "JELAPANG ROAD",
        "BUILDING": "GREENRIDGE PRIMARY SCHOOL",
        "ADDRESS": "11 JELAPANG ROAD GREENRIDGE PRIMARY SCHOOL SINGAPORE 677744",
        "POSTAL": "677744",
        "X": "20708.0073222192",
        "Y": "40870.2050487585",
        "LATITUDE": "1.3858892193692",
        "LONGITUDE": "103.767794469258",
        "LONGTITUDE": "103.767794469258"
    },
    {
        "SEARCHVAL": "GREENWOOD PRIMARY SCHOOL",
        "BLK_NO": "11",
        "ROAD_NAME": "WOODLANDS DRIVE 62",
        "BUILDING": "GREENWOOD PRIMARY SCHOOL",
        "ADDRESS": "11 WOODLANDS DRIVE 62 GREENWOOD PRIMARY SCHOOL SINGAPORE 737942",
        "POSTAL": "737942",
        "X": "24818.0410170276",
        "Y": "46842.3174743224",
        "LATITUDE": "1.43989958331782",
        "LONGITUDE": "103.804725587384",
        "LONGTITUDE": "103.804725587384"
    },
    {
        "SEARCHVAL": "GUANGYANG PRIMARY SCHOOL",
        "BLK_NO": "6",
        "ROAD_NAME": "BISHAN STREET 12",
        "BUILDING": "GUANGYANG PRIMARY SCHOOL",
        "ADDRESS": "6 BISHAN STREET 12 GUANGYANG PRIMARY SCHOOL SINGAPORE 579806",
        "POSTAL": "579806",
        "X": "29795.6102129035",
        "Y": "36425.0979033671",
        "LATITUDE": "1.34569011530238",
        "LONGITUDE": "103.849453239895",
        "LONGTITUDE": "103.849453239895"
    },
    {
        "SEARCHVAL": "HAIG GIRLS' SCHOOL",
        "BLK_NO": "51",
        "ROAD_NAME": "KOON SENG ROAD",
        "BUILDING": "HAIG GIRLS' SCHOOL",
        "ADDRESS": "51 KOON SENG ROAD HAIG GIRLS' SCHOOL SINGAPORE 427072",
        "POSTAL": "427072",
        "X": "35744.037941209",
        "Y": "32693.6655622385",
        "LATITUDE": "1.31194344271383",
        "LONGITUDE": "103.902902557195",
        "LONGTITUDE": "103.902902557195"
    },
    {
        "SEARCHVAL": "HENRY PARK PRIMARY SCHOOL",
        "BLK_NO": "1",
        "ROAD_NAME": "HOLLAND GROVE ROAD",
        "BUILDING": "HENRY PARK PRIMARY SCHOOL",
        "ADDRESS": "1 HOLLAND GROVE ROAD HENRY PARK PRIMARY SCHOOL SINGAPORE 278790",
        "POSTAL": "278790",
        "X": "22544.2873791968",
        "Y": "33216.9645254761",
        "LATITUDE": "1.31667646178347",
        "LONGITUDE": "103.784296227747",
        "LONGTITUDE": "103.784296227747"
    },
    {
        "SEARCHVAL": "KIDZ TREEHOUSE @ HOLY INNOCENTS' PRIMARY",
        "BLK_NO": "5",
        "ROAD_NAME": "LORONG LOW KOON",
        "BUILDING": "KIDZ TREEHOUSE @ HOLY INNOCENTS' PRIMARY",
        "ADDRESS": "5 LORONG LOW KOON KIDZ TREEHOUSE @ HOLY INNOCENTS' PRIMARY SINGAPORE 536451",
        "POSTAL": "536451",
        "X": "34780.4997206423",
        "Y": "38781.9217803665",
        "LATITUDE": "1.36700366732013",
        "LONGITUDE": "103.89424605689",
        "LONGTITUDE": "103.89424605689"
    },
    {
        "SEARCHVAL": "HONG WEN SCHOOL",
        "BLK_NO": "30",
        "ROAD_NAME": "TOWNER ROAD",
        "BUILDING": "HONG WEN SCHOOL",
        "ADDRESS": "30 TOWNER ROAD HONG WEN SCHOOL SINGAPORE 327829",
        "POSTAL": "327829",
        "X": "30705.4493981982",
        "Y": "33779.0355954058",
        "LATITUDE": "1.32175999964553",
        "LONGITUDE": "103.857628468881",
        "LONGTITUDE": "103.857628468881"
    },
    {
        "SEARCHVAL": "MOE KINDERGARTEN @ HORIZON",
        "BLK_NO": "61",
        "ROAD_NAME": "EDGEDALE PLAINS",
        "BUILDING": "MOE KINDERGARTEN @ HORIZON",
        "ADDRESS": "61 EDGEDALE PLAINS MOE KINDERGARTEN @ HORIZON SINGAPORE 828819",
        "POSTAL": "828819",
        "X": "36895.8301868727",
        "Y": "42389.6472073048",
        "LATITUDE": "1.39963005110234",
        "LONGITUDE": "103.913254844387",
        "LONGTITUDE": "103.913254844387"
    },
    {
        "SEARCHVAL": "HOUGANG PRIMARY SCHOOL",
        "BLK_NO": "1",
        "ROAD_NAME": "HOUGANG STREET 93",
        "BUILDING": "HOUGANG PRIMARY SCHOOL",
        "ADDRESS": "1 HOUGANG STREET 93 HOUGANG PRIMARY SCHOOL SINGAPORE 534238",
        "POSTAL": "534238",
        "X": "33284.6782123018",
        "Y": "39929.5216681417",
        "LATITUDE": "1.37738245231461",
        "LONGITUDE": "103.880805274557",
        "LONGTITUDE": "103.880805274557"
    },
    {
        "SEARCHVAL": "MOE KINDERGARTEN @ KRANJI",
        "BLK_NO": "11",
        "ROAD_NAME": "CHOA CHU KANG STREET 54",
        "BUILDING": "MOE KINDERGARTEN @ KRANJI",
        "ADDRESS": "11 CHOA CHU KANG STREET 54 MOE KINDERGARTEN @ KRANJI SINGAPORE 689189",
        "POSTAL": "689189",
        "X": "18375.155506717",
        "Y": "41732.8902870435",
        "LATITUDE": "1.39369034929329",
        "LONGITUDE": "103.746831748711",
        "LONGTITUDE": "103.746831748711"
    },
    {
        "SEARCHVAL": "MOE KINDERGARTEN @ HUAMIN",
        "BLK_NO": "21",
        "ROAD_NAME": "YISHUN AVENUE 11",
        "BUILDING": "MOE KINDERGARTEN @ HUAMIN",
        "ADDRESS": "21 YISHUN AVENUE 11 MOE KINDERGARTEN @ HUAMIN SINGAPORE 768857",
        "POSTAL": "768857",
        "X": "29198.8241870897",
        "Y": "45449.2488998696",
        "LATITUDE": "1.4273013308197",
        "LONGITUDE": "103.844091119272",
        "LONGTITUDE": "103.844091119272"
    },
    {
        "SEARCHVAL": "INNOVA PRIMARY SCHOOL",
        "BLK_NO": "80",
        "ROAD_NAME": "WOODLANDS DRIVE 17",
        "BUILDING": "INNOVA PRIMARY SCHOOL",
        "ADDRESS": "80 WOODLANDS DRIVE 17 INNOVA PRIMARY SCHOOL SINGAPORE 737888",
        "POSTAL": "737888",
        "X": "23246.8971469188",
        "Y": "45633.4723797198",
        "LATITUDE": "1.42896700684852",
        "LONGITUDE": "103.790607539185",
        "LONGTITUDE": "103.790607539185"
    },
    {
        "SEARCHVAL": "JIEMIN PRIMARY SCHOOL",
        "BLK_NO": "2",
        "ROAD_NAME": "YISHUN STREET 71",
        "BUILDING": "JIEMIN PRIMARY SCHOOL",
        "ADDRESS": "2 YISHUN STREET 71 JIEMIN PRIMARY SCHOOL SINGAPORE 768515",
        "POSTAL": "768515",
        "X": "27678.0421859771",
        "Y": "45492.0549418237",
        "LATITUDE": "1.42768847665227",
        "LONGITUDE": "103.830425490093",
        "LONGTITUDE": "103.830425490093"
    },
    {
        "SEARCHVAL": "MOE KINDERGARTEN @ JING SHAN",
        "BLK_NO": "5",
        "ROAD_NAME": "ANG MO KIO STREET 52",
        "BUILDING": "MOE KINDERGARTEN @ JING SHAN",
        "ADDRESS": "5 ANG MO KIO STREET 52 MOE KINDERGARTEN @ JING SHAN SINGAPORE 569228",
        "POSTAL": "569228",
        "X": "30053.750893645",
        "Y": "39288.3174064904",
        "LATITUDE": "1.37158403448249",
        "LONGITUDE": "103.851772988755",
        "LONGTITUDE": "103.851772988755"
    },
    {
        "SEARCHVAL": "MOE KINDERGARTEN @ JUNYUAN",
        "BLK_NO": "2",
        "ROAD_NAME": "TAMPINES STREET 91",
        "BUILDING": "MOE KINDERGARTEN @ JUNYUAN",
        "ADDRESS": "2 TAMPINES STREET 91 MOE KINDERGARTEN @ JUNYUAN SINGAPORE 528906",
        "POSTAL": "528906",
        "X": "39764.1579873385",
        "Y": "36686.6051103286",
        "LATITUDE": "1.34805283888458",
        "LONGITUDE": "103.939026808982",
        "LONGTITUDE": "103.939026808982"
    },
    {
        "SEARCHVAL": "JURONG PRIMARY SCHOOL",
        "BLK_NO": "320",
        "ROAD_NAME": "JURONG EAST STREET 32",
        "BUILDING": "JURONG PRIMARY SCHOOL",
        "ADDRESS": "320 JURONG EAST STREET 32 JURONG PRIMARY SCHOOL SINGAPORE 609476",
        "POSTAL": "609476",
        "X": "16853.0771883978",
        "Y": "36729.2343872562",
        "LATITUDE": "1.34843859698946",
        "LONGITUDE": "103.733156566858",
        "LONGTITUDE": "103.733156566858"
    },
    {
        "SEARCHVAL": "MOE KINDERGARTEN @ JURONG WEST",
        "BLK_NO": "30",
        "ROAD_NAME": "JURONG WEST STREET 61",
        "BUILDING": "MOE KINDERGARTEN @ JURONG WEST",
        "ADDRESS": "30 JURONG WEST STREET 61 MOE KINDERGARTEN @ JURONG WEST SINGAPORE 648368",
        "POSTAL": "648368",
        "X": "13054.4448081264",
        "Y": "35757.001294883",
        "LATITUDE": "1.33964443629144",
        "LONGITUDE": "103.699024035245",
        "LONGTITUDE": "103.699024035245"
    },
    {
        "SEARCHVAL": "KIDZ TREEHOUSE @ JUYING PRIMARY",
        "BLK_NO": "31",
        "ROAD_NAME": "JURONG WEST STREET 91",
        "BUILDING": "KIDZ TREEHOUSE @ JUYING PRIMARY",
        "ADDRESS": "31 JURONG WEST STREET 91 KIDZ TREEHOUSE @ JUYING PRIMARY SINGAPORE 649037",
        "POSTAL": "649037",
        "X": "11815.2870542612",
        "Y": "35672.1430048458",
        "LATITUDE": "1.3388763709006",
        "LONGITUDE": "103.687889547387",
        "LONGTITUDE": "103.687889547387"
    },
    {
        "SEARCHVAL": "KEMING PRIMARY SCHOOL",
        "BLK_NO": "90",
        "ROAD_NAME": "BUKIT BATOK EAST AVENUE 6",
        "BUILDING": "KEMING PRIMARY SCHOOL",
        "ADDRESS": "90 BUKIT BATOK EAST AVENUE 6 KEMING PRIMARY SCHOOL SINGAPORE 659762",
        "POSTAL": "659762",
        "X": "19445.3031655131",
        "Y": "36407.3561431039",
        "LATITUDE": "1.34552849960874",
        "LONGITUDE": "103.756449399351",
        "LONGTITUDE": "103.756449399351"
    },
    {
        "SEARCHVAL": "KHENG CHENG SCHOOL",
        "BLK_NO": "15",
        "ROAD_NAME": "LORONG 3 TOA PAYOH",
        "BUILDING": "KHENG CHENG SCHOOL",
        "ADDRESS": "15 LORONG 3 TOA PAYOH KHENG CHENG SCHOOL SINGAPORE 319580",
        "POSTAL": "319580",
        "X": "29539.1234353296",
        "Y": "35501.5835219584",
        "LATITUDE": "1.3373381935639",
        "LONGITUDE": "103.847148501824",
        "LONGTITUDE": "103.847148501824"
    },
    {
        "SEARCHVAL": "NASCANS KONG HWA STUDENT CARE CENTRE",
        "BLK_NO": "350",
        "ROAD_NAME": "GUILLEMARD ROAD",
        "BUILDING": "NASCANS KONG HWA STUDENT CARE CENTRE",
        "ADDRESS": "350 GUILLEMARD ROAD NASCANS KONG HWA STUDENT CARE CENTRE SINGAPORE 399772",
        "POSTAL": "399772",
        "X": "34114.3886616211",
        "Y": "32582.883773258",
        "LATITUDE": "1.31094193836138",
        "LONGITUDE": "103.888259342632",
        "LONGTITUDE": "103.888259342632"
    },
    {
        "SEARCHVAL": "KUO CHUAN PRESBYTERIAN PRIMARY SCHOOL",
        "BLK_NO": "8",
        "ROAD_NAME": "BISHAN STREET 13",
        "BUILDING": "KUO CHUAN PRESBYTERIAN PRIMARY SCHOOL",
        "ADDRESS": "8 BISHAN STREET 13 KUO CHUAN PRESBYTERIAN PRIMARY SCHOOL SINGAPORE 579793",
        "POSTAL": "579793",
        "X": "30414.9291181238",
        "Y": "36835.1167885177",
        "LATITUDE": "1.34939813669536",
        "LONGITUDE": "103.855018233311",
        "LONGTITUDE": "103.855018233311"
    },
    {
        "SEARCHVAL": "LAKESIDE PRIMARY SCHOOL",
        "BLK_NO": "161",
        "ROAD_NAME": "CORPORATION WALK",
        "BUILDING": "LAKESIDE PRIMARY SCHOOL",
        "ADDRESS": "161 CORPORATION WALK LAKESIDE PRIMARY SCHOOL SINGAPORE 618310",
        "POSTAL": "618310",
        "X": "15176.2291954523",
        "Y": "35597.6143301465",
        "LATITUDE": "1.33820397704287",
        "LONGITUDE": "103.718089546664",
        "LONGTITUDE": "103.718089546664"
    },
    {
        "SEARCHVAL": "LIANHUA PRIMARY SCHOOL",
        "BLK_NO": "2",
        "ROAD_NAME": "BUKIT BATOK STREET 52",
        "BUILDING": "LIANHUA PRIMARY SCHOOL",
        "ADDRESS": "2 BUKIT BATOK STREET 52 LIANHUA PRIMARY SCHOOL SINGAPORE 659243",
        "POSTAL": "659243",
        "X": "19191.1979939695",
        "Y": "37370.8497486636",
        "LATITUDE": "1.35424191127295",
        "LONGITUDE": "103.754165828711",
        "LONGTITUDE": "103.754165828711"
    },
    {
        "SEARCHVAL": "MAHA BODHI SCHOOL",
        "BLK_NO": "10",
        "ROAD_NAME": "UBI AVENUE 1",
        "BUILDING": "MAHA BODHI SCHOOL",
        "ADDRESS": "10 UBI AVENUE 1 MAHA BODHI SCHOOL SINGAPORE 408931",
        "POSTAL": "408931",
        "X": "35565.4979411988",
        "Y": "34521.1796176471",
        "LATITUDE": "1.32847086658384",
        "LONGITUDE": "103.901298737314",
        "LONGTITUDE": "103.901298737314"
    },
    {
        "SEARCHVAL": "NASCANS @ MARSILING",
        "BLK_NO": "31",
        "ROAD_NAME": "WOODLANDS CENTRE ROAD",
        "BUILDING": "NASCANS @ MARSILING",
        "ADDRESS": "31 WOODLANDS CENTRE ROAD NASCANS @ MARSILING SINGAPORE 738927",
        "POSTAL": "738927",
        "X": "21358.3506686054",
        "Y": "46182.1604909152",
        "LATITUDE": "1.43392876015922",
        "LONGITUDE": "103.773637073788",
        "LONGTITUDE": "103.773637073788"
    },
    {
        "SEARCHVAL": "GOOD SHEPHERD STUDENT CARE",
        "BLK_NO": "20",
        "ROAD_NAME": "MARYMOUNT ROAD",
        "BUILDING": "GOOD SHEPHERD STUDENT CARE",
        "ADDRESS": "20 MARYMOUNT ROAD GOOD SHEPHERD STUDENT CARE SINGAPORE 297754",
        "POSTAL": "297754",
        "X": "28722.6185440896",
        "Y": "35844.3858416472",
        "LATITUDE": "1.34043840661368",
        "LONGITUDE": "103.839811736775",
        "LONGTITUDE": "103.839811736775"
    },
    {
        "SEARCHVAL": "MAYFLOWER PRIMARY SCHOOL (JAN 2019 - DEC 2021)",
        "BLK_NO": "6",
        "ROAD_NAME": "ANG MO KIO AVENUE 2",
        "BUILDING": "MAYFLOWER PRIMARY SCHOOL (JAN 2019 - DEC 2021)",
        "ADDRESS": "6 ANG MO KIO AVENUE 2 MAYFLOWER PRIMARY SCHOOL (JAN 2019 - DEC 2021) SINGAPORE 569948",
        "POSTAL": "569948",
        "X": "28276.7353066411",
        "Y": "39792.7725521773",
        "LATITUDE": "1.37614621670476",
        "LONGITUDE": "103.835805246743",
        "LONGTITUDE": "103.835805246743"
    },
    {
        "SEARCHVAL": "GRACELAND STUDENT CARE CENTRE (MEE TOH)",
        "BLK_NO": "21",
        "ROAD_NAME": "EDGEDALE PLAINS",
        "BUILDING": "GRACELAND STUDENT CARE CENTRE (MEE TOH)",
        "ADDRESS": "21 EDGEDALE PLAINS GRACELAND STUDENT CARE CENTRE (MEE TOH) SINGAPORE 828867",
        "POSTAL": "828867",
        "X": "36374.7735061357",
        "Y": "41861.4694083072",
        "LATITUDE": "1.39485356081865",
        "LONGITUDE": "103.90857257736",
        "LONGTITUDE": "103.90857257736"
    },
    {
        "SEARCHVAL": "MERIDIAN PRIMARY SCHOOL",
        "BLK_NO": "20",
        "ROAD_NAME": "PASIR RIS STREET 71",
        "BUILDING": "MERIDIAN PRIMARY SCHOOL",
        "ADDRESS": "20 PASIR RIS STREET 71 MERIDIAN PRIMARY SCHOOL SINGAPORE 518798",
        "POSTAL": "518798",
        "X": "39303.5458344575",
        "Y": "39724.6885971073",
        "LATITUDE": "1.37552831658484",
        "LONGITUDE": "103.934889078518",
        "LONGTITUDE": "103.934889078518"
    },
    {
        "SEARCHVAL": "METHODIST GIRLS' SCHOOL",
        "BLK_NO": "11",
        "ROAD_NAME": "BLACKMORE DRIVE",
        "BUILDING": "METHODIST GIRLS' SCHOOL",
        "ADDRESS": "11 BLACKMORE DRIVE METHODIST GIRLS' SCHOOL SINGAPORE 599986",
        "POSTAL": "599986",
        "X": "22443.8042111406",
        "Y": "35016.191455096",
        "LATITUDE": "1.33294800935714",
        "LONGITUDE": "103.783393009829",
        "LONGTITUDE": "103.783393009829"
    },
    {
        "SEARCHVAL": "MONTFORT JUNIOR SCHOOL",
        "BLK_NO": "52",
        "ROAD_NAME": "HOUGANG AVENUE 8",
        "BUILDING": "MONTFORT JUNIOR SCHOOL",
        "ADDRESS": "52 HOUGANG AVENUE 8 MONTFORT JUNIOR SCHOOL SINGAPORE 538786",
        "POSTAL": "538786",
        "X": "34230.9110763939",
        "Y": "39536.1151842475",
        "LATITUDE": "1.37382444075979",
        "LONGITUDE": "103.889307782925",
        "LONGTITUDE": "103.889307782925"
    },
    {
        "SEARCHVAL": "NAN CHIAU PRIMARY SCHOOL",
        "BLK_NO": "50",
        "ROAD_NAME": "ANCHORVALE LINK",
        "BUILDING": "NAN CHIAU PRIMARY SCHOOL",
        "ADDRESS": "50 ANCHORVALE LINK NAN CHIAU PRIMARY SCHOOL SINGAPORE 545080",
        "POSTAL": "545080",
        "X": "34439.3196740765",
        "Y": "41569.2687405795",
        "LATITUDE": "1.39221149906592",
        "LONGITUDE": "103.891180928186",
        "LONGTITUDE": "103.891180928186"
    },
    {
        "SEARCHVAL": "NAN HUA PRIMARY SCHOOL",
        "BLK_NO": "30",
        "ROAD_NAME": "JALAN LEMPENG",
        "BUILDING": "NAN HUA PRIMARY SCHOOL",
        "ADDRESS": "30 JALAN LEMPENG NAN HUA PRIMARY SCHOOL SINGAPORE 128806",
        "POSTAL": "128806",
        "X": "19962.2298404071",
        "Y": "33496.2443055101",
        "LATITUDE": "1.31920159956387",
        "LONGITUDE": "103.761095065761",
        "LONGTITUDE": "103.761095065761"
    },
    {
        "SEARCHVAL": "NANYANG PRIMARY SCHOOL",
        "BLK_NO": "52",
        "ROAD_NAME": "KING'S ROAD",
        "BUILDING": "NANYANG PRIMARY SCHOOL",
        "ADDRESS": "52 KING'S ROAD NANYANG PRIMARY SCHOOL SINGAPORE 268097",
        "POSTAL": "268097",
        "X": "25154.4872114761",
        "Y": "33678.1373927556",
        "LATITUDE": "1.32084749904532",
        "LONGITUDE": "103.807750155296",
        "LONGTITUDE": "103.807750155296"
    },
    {
        "SEARCHVAL": "MOE KINDERGARTEN @ NAVAL BASE",
        "BLK_NO": "7",
        "ROAD_NAME": "YISHUN AVENUE 4",
        "BUILDING": "MOE KINDERGARTEN @ NAVAL BASE",
        "ADDRESS": "7 YISHUN AVENUE 4 MOE KINDERGARTEN @ NAVAL BASE SINGAPORE 769028",
        "POSTAL": "769028",
        "X": "28643.4553870633",
        "Y": "44188.7616005596",
        "LATITUDE": "1.41590195697649",
        "LONGITUDE": "103.839100590207",
        "LONGTITUDE": "103.839100590207"
    },
    {
        "SEARCHVAL": "NEW TOWN CAREHUT",
        "BLK_NO": "300",
        "ROAD_NAME": "TANGLIN HALT ROAD",
        "BUILDING": "NEW TOWN CAREHUT",
        "ADDRESS": "300 TANGLIN HALT ROAD NEW TOWN CAREHUT SINGAPORE 148812",
        "POSTAL": "148812",
        "X": "24288.0252855225",
        "Y": "31352.0824043378",
        "LATITUDE": "1.29981138884057",
        "LONGITUDE": "103.799964819895",
        "LONGTITUDE": "103.799964819895"
    },
    {
        "SEARCHVAL": "KNOWLEDGE PARK EDUCARE PTE LTE (OPERA ESTATE PRIMARY SCHOOL)",
        "BLK_NO": "48",
        "ROAD_NAME": "FIDELIO STREET",
        "BUILDING": "KNOWLEDGE PARK EDUCARE PTE LTE (OPERA ESTATE PRIMARY SCHOOL)",
        "ADDRESS": "48 FIDELIO STREET KNOWLEDGE PARK EDUCARE PTE LTE (OPERA ESTATE PRIMARY SCHOOL) SINGAPORE 458436",
        "POSTAL": "458436",
        "X": "38064.4274895079",
        "Y": "33581.1396132912",
        "LATITUDE": "1.31996876377748",
        "LONGITUDE": "103.923752668632",
        "LONGTITUDE": "103.923752668632"
    },
    {
        "SEARCHVAL": "NASCANS NGEE ANN SCC",
        "BLK_NO": "344",
        "ROAD_NAME": "MARINE TERRACE",
        "BUILDING": "NASCANS NGEE ANN SCC",
        "ADDRESS": "344 MARINE TERRACE NASCANS NGEE ANN SCC SINGAPORE 449149",
        "POSTAL": "449149",
        "X": "37376.4109761156",
        "Y": "31984.7973440588",
        "LATITUDE": "1.30553224180437",
        "LONGITUDE": "103.917570005713",
        "LONGTITUDE": "103.917570005713"
    },
    {
        "SEARCHVAL": "NORTH SPRING PRIMARY SCHOOL",
        "BLK_NO": "1",
        "ROAD_NAME": "RIVERVALE STREET",
        "BUILDING": "NORTH SPRING PRIMARY SCHOOL",
        "ADDRESS": "1 RIVERVALE STREET NORTH SPRING PRIMARY SCHOOL SINGAPORE 545088",
        "POSTAL": "545088",
        "X": "35777.2005732814",
        "Y": "40999.8398870248",
        "LATITUDE": "1.38706146494859",
        "LONGITUDE": "103.903202683028",
        "LONGTITUDE": "103.903202683028"
    },
    {
        "SEARCHVAL": "MOE KINDERGARTEN @ NORTH VIEW",
        "BLK_NO": "210",
        "ROAD_NAME": "YISHUN AVENUE 6",
        "BUILDING": "MOE KINDERGARTEN @ NORTH VIEW",
        "ADDRESS": "210 YISHUN AVENUE 6 MOE KINDERGARTEN @ NORTH VIEW SINGAPORE 768960",
        "POSTAL": "768960",
        "X": "29675.9396856809",
        "Y": "45465.8669915069",
        "LATITUDE": "1.42745159462566",
        "LONGITUDE": "103.848378442893",
        "LONGTITUDE": "103.848378442893"
    },
    {
        "SEARCHVAL": "MOE KINDERGARTEN @ NORTH VISTA",
        "BLK_NO": "20",
        "ROAD_NAME": "COMPASSVALE LINK",
        "BUILDING": "MOE KINDERGARTEN @ NORTH VISTA",
        "ADDRESS": "20 COMPASSVALE LINK MOE KINDERGARTEN @ NORTH VISTA SINGAPORE 544974",
        "POSTAL": "544974",
        "X": "35005.0914893029",
        "Y": "40501.0361976493",
        "LATITUDE": "1.38255066171151",
        "LONGITUDE": "103.89626457548",
        "LONGTITUDE": "103.89626457548"
    },
    {
        "SEARCHVAL": "NASCANS NORTHLAND STUDENT CARE CENTRE",
        "BLK_NO": "15",
        "ROAD_NAME": "YISHUN AVENUE 4",
        "BUILDING": "NASCANS NORTHLAND STUDENT CARE CENTRE",
        "ADDRESS": "15 YISHUN AVENUE 4 NASCANS NORTHLAND STUDENT CARE CENTRE SINGAPORE 769026",
        "POSTAL": "769026",
        "X": "28831.785990159",
        "Y": "44786.0974140298",
        "LATITUDE": "1.42130404159807",
        "LONGITUDE": "103.840792923345",
        "LONGTITUDE": "103.840792923345"
    },
    {
        "SEARCHVAL": "MOE KINDERGARTEN @ NORTHOAKS",
        "BLK_NO": "61",
        "ROAD_NAME": "SEMBAWANG DRIVE",
        "BUILDING": "MOE KINDERGARTEN @ NORTHOAKS",
        "ADDRESS": "61 SEMBAWANG DRIVE MOE KINDERGARTEN @ NORTHOAKS SINGAPORE 757622",
        "POSTAL": "757622",
        "X": "25858.5709089329",
        "Y": "48769.5280026253",
        "LATITUDE": "1.45732867302094",
        "LONGITUDE": "103.814075611175",
        "LONGTITUDE": "103.814075611175"
    },
    {
        "SEARCHVAL": "MOE KINDERGARTEN @ NORTHSHORE",
        "BLK_NO": "30",
        "ROAD_NAME": "NORTHSHORE DRIVE",
        "BUILDING": "MOE KINDERGARTEN @ NORTHSHORE",
        "ADDRESS": "30 NORTHSHORE DRIVE MOE KINDERGARTEN @ NORTHSHORE SINGAPORE 828671",
        "POSTAL": "828671",
        "X": "35993.4941017935",
        "Y": "44467.6734127142",
        "LATITUDE": "1.41842322079348",
        "LONGITUDE": "103.905147201163",
        "LONGTITUDE": "103.905147201163"
    },
    {
        "SEARCHVAL": "MOE KINDERGARTEN @ OASIS",
        "BLK_NO": "71",
        "ROAD_NAME": "EDGEFIELD PLAINS",
        "BUILDING": "MOE KINDERGARTEN @ OASIS",
        "ADDRESS": "71 EDGEFIELD PLAINS MOE KINDERGARTEN @ OASIS SINGAPORE 828716",
        "POSTAL": "828716",
        "X": "36667.1550856009",
        "Y": "42991.3663999084",
        "LATITUDE": "1.40507184758584",
        "LONGITUDE": "103.911200193835",
        "LONGTITUDE": "103.911200193835"
    },
    {
        "SEARCHVAL": "PALM VIEW PRIMARY SCHOOL",
        "BLK_NO": "150",
        "ROAD_NAME": "COMPASSVALE BOW",
        "BUILDING": "PALM VIEW PRIMARY SCHOOL",
        "ADDRESS": "150 COMPASSVALE BOW PALM VIEW PRIMARY SCHOOL SINGAPORE 544822",
        "POSTAL": "544822",
        "X": "34458.6783197625",
        "Y": "40635.7654705234",
        "LATITUDE": "1.38376923022123",
        "LONGITUDE": "103.891354675017",
        "LONGTITUDE": "103.891354675017"
    },
    {
        "SEARCHVAL": "LIFE STUDENT CARE - PARK VIEW PRIMARY",
        "BLK_NO": "60",
        "ROAD_NAME": "PASIR RIS DRIVE 1",
        "BUILDING": "LIFE STUDENT CARE - PARK VIEW PRIMARY",
        "ADDRESS": "60 PASIR RIS DRIVE 1 LIFE STUDENT CARE - PARK VIEW PRIMARY SINGAPORE 519524",
        "POSTAL": "519524",
        "X": "39783.5293153096",
        "Y": "39999.8822296057",
        "LATITUDE": "1.37801687647812",
        "LONGITUDE": "103.9392021807",
        "LONGTITUDE": "103.9392021807"
    },
    {
        "SEARCHVAL": "COMMIT LEARNING SCHOOLHOUSE @ PASIR RIS PRIMARY",
        "BLK_NO": "5",
        "ROAD_NAME": "PASIR RIS STREET 21",
        "BUILDING": "COMMIT LEARNING SCHOOLHOUSE @ PASIR RIS PRIMARY",
        "ADDRESS": "5 PASIR RIS STREET 21 COMMIT LEARNING SCHOOLHOUSE @ PASIR RIS PRIMARY SINGAPORE 518968",
        "POSTAL": "518968",
        "X": "42423.3658017013",
        "Y": "39384.6009523422",
        "LATITUDE": "1.37245132722087",
        "LONGITUDE": "103.962922699031",
        "LONGTITUDE": "103.962922699031"
    },
    {
        "SEARCHVAL": "COMMIT LEARNING SCHOOLHOUSE @ PAYA LEBAR METHODIST GIRLS' SCHOOL",
        "BLK_NO": "298",
        "ROAD_NAME": "LORONG AH SOO",
        "BUILDING": "COMMIT LEARNING SCHOOLHOUSE @ PAYA LEBAR METHODIST GIRLS' SCHOOL",
        "ADDRESS": "298 LORONG AH SOO COMMIT LEARNING SCHOOLHOUSE @ PAYA LEBAR METHODIST GIRLS' SCHOOL SINGAPORE 536741",
        "POSTAL": "536741",
        "X": "33734.5224694395",
        "Y": "36929.8656870592",
        "LATITUDE": "1.3502545600894",
        "LONGITUDE": "103.884846876112",
        "LONGTITUDE": "103.884846876112"
    },
    {
        "SEARCHVAL": "ACE @ WORK SCHOOLCARE PTE LTD (PEI CHUN PUBLIC SCHOOL)",
        "BLK_NO": "16",
        "ROAD_NAME": "LORONG 7 TOA PAYOH",
        "BUILDING": "ACE @ WORK SCHOOLCARE PTE LTD (PEI CHUN PUBLIC SCHOOL)",
        "ADDRESS": "16 LORONG 7 TOA PAYOH ACE @ WORK SCHOOLCARE PTE LTD (PEI CHUN PUBLIC SCHOOL) SINGAPORE 319320",
        "POSTAL": "319320",
        "X": "30450.8965329072",
        "Y": "35439.718033338",
        "LATITUDE": "1.33677864390672",
        "LONGITUDE": "103.855341310212",
        "LONGTITUDE": "103.855341310212"
    },
    {
        "SEARCHVAL": "ACE @ WORK ENRICHMENT PTE LTD (PEI HWA PRESBYTERIAN PRIMARY)",
        "BLK_NO": "7",
        "ROAD_NAME": "PEI WAH AVENUE",
        "BUILDING": "ACE @ WORK ENRICHMENT PTE LTD (PEI HWA PRESBYTERIAN PRIMARY)",
        "ADDRESS": "7 PEI WAH AVENUE ACE @ WORK ENRICHMENT PTE LTD (PEI HWA PRESBYTERIAN PRIMARY) SINGAPORE 597610",
        "POSTAL": "597610",
        "X": "21648.9750402756",
        "Y": "35582.9065720346",
        "LATITUDE": "1.33807302121151",
        "LONGITUDE": "103.776250903095",
        "LONGTITUDE": "103.776250903095"
    },
    {
        "SEARCHVAL": "MOE KINDERGARTEN @ PEI TONG",
        "BLK_NO": "15",
        "ROAD_NAME": "CLEMENTI AVENUE 5",
        "BUILDING": "MOE KINDERGARTEN @ PEI TONG",
        "ADDRESS": "15 CLEMENTI AVENUE 5 MOE KINDERGARTEN @ PEI TONG SINGAPORE 129857",
        "POSTAL": "129857",
        "X": "20695.3221918512",
        "Y": "33200.6604944393",
        "LATITUDE": "1.31652862942944",
        "LONGITUDE": "103.767682345847",
        "LONGTITUDE": "103.767682345847"
    },
    {
        "SEARCHVAL": "COMMIT LEARNING SCHOOLHOUSE @ PEIYING PRIMARY SCHOOL",
        "BLK_NO": "651",
        "ROAD_NAME": "YISHUN RING ROAD",
        "BUILDING": "COMMIT LEARNING SCHOOLHOUSE @ PEIYING PRIMARY SCHOOL",
        "ADDRESS": "651 YISHUN RING ROAD COMMIT LEARNING SCHOOLHOUSE @ PEIYING PRIMARY SCHOOL SINGAPORE 768687",
        "POSTAL": "768687",
        "X": "27646.6270154091",
        "Y": "44356.206750067",
        "LATITUDE": "1.41741627551251",
        "LONGITUDE": "103.830143209875",
        "LONGTITUDE": "103.830143209875"
    },
    {
        "SEARCHVAL": "23 JURONG WEST STREET 81 SINGAPORE 649076",
        "BLK_NO": "23",
        "ROAD_NAME": "JURONG WEST STREET 81",
        "BUILDING": "NIL",
        "ADDRESS": "23 JURONG WEST STREET 81 SINGAPORE 649076",
        "POSTAL": "649076",
        "X": "12607.0934523959",
        "Y": "36773.4045769684",
        "LATITUDE": "1.34883617453427",
        "LONGITUDE": "103.695003812477",
        "LONGTITUDE": "103.695003812477"
    },
    {
        "SEARCHVAL": "NASCANS @ POI CHING",
        "BLK_NO": "21",
        "ROAD_NAME": "TAMPINES STREET 71",
        "BUILDING": "NASCANS @ POI CHING",
        "ADDRESS": "21 TAMPINES STREET 71 NASCANS @ POI CHING SINGAPORE 529067",
        "POSTAL": "529067",
        "X": "39343.4048039075",
        "Y": "37747.9287135638",
        "LATITUDE": "1.35765121877679",
        "LONGITUDE": "103.935246486174",
        "LONGTITUDE": "103.935246486174"
    },
    {
        "SEARCHVAL": "BIG HEART STUDENT CARE (PRINCESS ELIZABETH PRIMARY SCHOOL)",
        "BLK_NO": "30",
        "ROAD_NAME": "BUKIT BATOK WEST AVENUE 3",
        "BUILDING": "BIG HEART STUDENT CARE (PRINCESS ELIZABETH PRIMARY SCHOOL)",
        "ADDRESS": "30 BUKIT BATOK WEST AVENUE 3 BIG HEART STUDENT CARE (PRINCESS ELIZABETH PRIMARY SCHOOL) SINGAPORE 659163",
        "POSTAL": "659163",
        "X": "17694.7193374345",
        "Y": "36812.396792436",
        "LATITUDE": "1.34919098857585",
        "LONGITUDE": "103.740719208011",
        "LONGTITUDE": "103.740719208011"
    },
    {
        "SEARCHVAL": "MOE KINDERGARTEN @ PUNGGOL COVE",
        "BLK_NO": "52",
        "ROAD_NAME": "SUMANG WALK",
        "BUILDING": "MOE KINDERGARTEN @ PUNGGOL COVE",
        "ADDRESS": "52 SUMANG WALK MOE KINDERGARTEN @ PUNGGOL COVE SINGAPORE 828674",
        "POSTAL": "828674",
        "X": "35325.8871990182",
        "Y": "43754.8758048899",
        "LATITUDE": "1.41197712005806",
        "LONGITUDE": "103.899147983053",
        "LONGTITUDE": "103.899147983053"
    },
    {
        "SEARCHVAL": "MOE KINDERGARTEN @ PUNGGOL GREEN",
        "BLK_NO": "98",
        "ROAD_NAME": "PUNGGOL WALK",
        "BUILDING": "MOE KINDERGARTEN @ PUNGGOL GREEN",
        "ADDRESS": "98 PUNGGOL WALK MOE KINDERGARTEN @ PUNGGOL GREEN SINGAPORE 828772",
        "POSTAL": "828772",
        "X": "35284.0661983276",
        "Y": "42694.8800883684",
        "LATITUDE": "1.40239091736157",
        "LONGITUDE": "103.898771918364",
        "LONGTITUDE": "103.898771918364"
    },
    {
        "SEARCHVAL": "AFTERSCHOOL @ PUNGGOL PRIMARY SCHOOL",
        "BLK_NO": "61",
        "ROAD_NAME": "HOUGANG AVENUE 8",
        "BUILDING": "AFTERSCHOOL @ PUNGGOL PRIMARY SCHOOL",
        "ADDRESS": "61 HOUGANG AVENUE 8 AFTERSCHOOL @ PUNGGOL PRIMARY SCHOOL SINGAPORE 538787",
        "POSTAL": "538787",
        "X": "34827.3316768408",
        "Y": "40020.0263597388",
        "LATITUDE": "1.37820062547641",
        "LONGITUDE": "103.894667159512",
        "LONGTITUDE": "103.894667159512"
    },
    {
        "SEARCHVAL": "MOE KINDERGARTEN @ PUNGGOL VIEW",
        "BLK_NO": "9",
        "ROAD_NAME": "PUNGGOL PLACE",
        "BUILDING": "MOE KINDERGARTEN @ PUNGGOL VIEW",
        "ADDRESS": "9 PUNGGOL PLACE MOE KINDERGARTEN @ PUNGGOL VIEW SINGAPORE 828845",
        "POSTAL": "828845",
        "X": "35998.4134966517",
        "Y": "43070.6434856262",
        "LATITUDE": "1.4057889942173",
        "LONGITUDE": "103.905191018271",
        "LONGTITUDE": "103.905191018271"
    },
    {
        "SEARCHVAL": "AMP-MERCU STUDENT CARE CENTRE @ QIFA PRIMARY SCHOOL",
        "BLK_NO": "50",
        "ROAD_NAME": "WEST COAST AVENUE",
        "BUILDING": "AMP-MERCU STUDENT CARE CENTRE @ QIFA PRIMARY SCHOOL",
        "ADDRESS": "50 WEST COAST AVENUE AMP-MERCU STUDENT CARE CENTRE @ QIFA PRIMARY SCHOOL SINGAPORE 128104",
        "POSTAL": "128104",
        "X": "19465.1912890384",
        "Y": "32839.9119845238",
        "LATITUDE": "1.3132658326807",
        "LONGITUDE": "103.756629101811",
        "LONGTITUDE": "103.756629101811"
    },
    {
        "SEARCHVAL": "POWERLIFE STUDENT SERVICES @ QIHUA PRIMARY SCHOOL",
        "BLK_NO": "5",
        "ROAD_NAME": "WOODLANDS STREET 81",
        "BUILDING": "POWERLIFE STUDENT SERVICES @ QIHUA PRIMARY SCHOOL",
        "ADDRESS": "5 WOODLANDS STREET 81 POWERLIFE STUDENT SERVICES @ QIHUA PRIMARY SCHOOL SINGAPORE 738525",
        "POSTAL": "738525",
        "X": "22994.5556907868",
        "Y": "47078.5773993656",
        "LATITUDE": "1.44203596557592",
        "LONGITUDE": "103.788339762066",
        "LONGTITUDE": "103.788339762066"
    },
    {
        "SEARCHVAL": "QUEENSTOWN CAREHUT",
        "BLK_NO": "310",
        "ROAD_NAME": "MARGARET DRIVE",
        "BUILDING": "QUEENSTOWN CAREHUT",
        "ADDRESS": "310 MARGARET DRIVE QUEENSTOWN CAREHUT SINGAPORE 149303",
        "POSTAL": "149303",
        "X": "25143.1426198389",
        "Y": "30878.5540552996",
        "LATITUDE": "1.29552905587752",
        "LONGITUDE": "103.807648475656",
        "LONGTITUDE": "103.807648475656"
    },
    {
        "SEARCHVAL": "ACE @ WORK ENRICHMENT PTE LTD (RADIN MAS PRIMARY)",
        "BLK_NO": "1",
        "ROAD_NAME": "BUKIT PURMEI AVENUE",
        "BUILDING": "ACE @ WORK ENRICHMENT PTE LTD (RADIN MAS PRIMARY)",
        "ADDRESS": "1 BUKIT PURMEI AVENUE ACE @ WORK ENRICHMENT PTE LTD (RADIN MAS PRIMARY) SINGAPORE 099840",
        "POSTAL": "099840",
        "X": "26975.8011428332",
        "Y": "28597.1569343451",
        "LATITUDE": "1.27489701529771",
        "LONGITUDE": "103.824115781658",
        "LONGTITUDE": "103.824115781658"
    },
    {
        "SEARCHVAL": "KNOWLEDGE PARK EDUCARE (SC) PTE LTD (RAFFLES GIRLS)",
        "BLK_NO": "21",
        "ROAD_NAME": "HILLCREST ROAD",
        "BUILDING": "KNOWLEDGE PARK EDUCARE (SC) PTE LTD (RAFFLES GIRLS)",
        "ADDRESS": "21 HILLCREST ROAD KNOWLEDGE PARK EDUCARE (SC) PTE LTD (RAFFLES GIRLS) SINGAPORE 289072",
        "POSTAL": "289072",
        "X": "25003.9977021599",
        "Y": "34694.7955917995",
        "LATITUDE": "1.33004178068277",
        "LONGITUDE": "103.806397828938",
        "LONGTITUDE": "103.806397828938"
    },
    {
        "SEARCHVAL": "COMMIT LEARNING SCHOOLHOUSE @ RED SWASTIKA SCHOOL",
        "BLK_NO": "350",
        "ROAD_NAME": "BEDOK NORTH AVENUE 3",
        "BUILDING": "COMMIT LEARNING SCHOOLHOUSE @ RED SWASTIKA SCHOOL",
        "ADDRESS": "350 BEDOK NORTH AVENUE 3 COMMIT LEARNING SCHOOLHOUSE @ RED SWASTIKA SCHOOL SINGAPORE 469719",
        "POSTAL": "469719",
        "X": "39240.1303829281",
        "Y": "35138.9475005791",
        "LATITUDE": "1.33405659580859",
        "LONGITUDE": "103.934317528484",
        "LONGTITUDE": "103.934317528484"
    },
    {
        "SEARCHVAL": "AFTERSCHOOL @ RIVER VALLEY PRIMARY SCHOOL",
        "BLK_NO": "2",
        "ROAD_NAME": "RIVER VALLEY GREEN",
        "BUILDING": "AFTERSCHOOL @ RIVER VALLEY PRIMARY SCHOOL",
        "ADDRESS": "2 RIVER VALLEY GREEN AFTERSCHOOL @ RIVER VALLEY PRIMARY SCHOOL SINGAPORE 237993",
        "POSTAL": "237993",
        "X": "28300.5267893467",
        "Y": "30729.7527125087",
        "LATITUDE": "1.29418347842837",
        "LONGITUDE": "103.836018941571",
        "LONGTITUDE": "103.836018941571"
    },
    {
        "SEARCHVAL": "MERCU STUDENT CARE CENTRE @ RIVERSIDE PRIMARY SCHOOL",
        "BLK_NO": "110",
        "ROAD_NAME": "WOODLANDS CRESCENT",
        "BUILDING": "MERCU STUDENT CARE CENTRE @ RIVERSIDE PRIMARY SCHOOL",
        "ADDRESS": "110 WOODLANDS CRESCENT MERCU STUDENT CARE CENTRE @ RIVERSIDE PRIMARY SCHOOL SINGAPORE 737803",
        "POSTAL": "737803",
        "X": "24502.3868994378",
        "Y": "47627.9217809848",
        "LATITUDE": "1.44700426493785",
        "LONGITUDE": "103.801889031334",
        "LONGTITUDE": "103.801889031334"
    },
    {
        "SEARCHVAL": "PRO-TEACH SCHOOLCARE (RIVERVALE) LLP",
        "BLK_NO": "80",
        "ROAD_NAME": "RIVERVALE DRIVE",
        "BUILDING": "PRO-TEACH SCHOOLCARE (RIVERVALE) LLP",
        "ADDRESS": "80 RIVERVALE DRIVE PRO-TEACH SCHOOLCARE (RIVERVALE) LLP SINGAPORE 545092",
        "POSTAL": "545092",
        "X": "35926.5905072847",
        "Y": "41693.547538057",
        "LATITUDE": "1.39333506298213",
        "LONGITUDE": "103.904545253288",
        "LONGTITUDE": "103.904545253288"
    },
    {
        "SEARCHVAL": "KNOWLEDGE PARK EDUCARE (ROSYTH) PTE LTD",
        "BLK_NO": "21",
        "ROAD_NAME": "SERANGOON NORTH AVENUE 4",
        "BUILDING": "KNOWLEDGE PARK EDUCARE (ROSYTH) PTE LTD",
        "ADDRESS": "21 SERANGOON NORTH AVENUE 4 KNOWLEDGE PARK EDUCARE (ROSYTH) PTE LTD SINGAPORE 555855",
        "POSTAL": "555855",
        "X": "32613.2254595151",
        "Y": "39429.2584868576",
        "LATITUDE": "1.3728583654058",
        "LONGITUDE": "103.87477170399",
        "LONGTITUDE": "103.87477170399"
    },
    {
        "SEARCHVAL": "RULANG PRIMARY SCHOOL",
        "BLK_NO": "6",
        "ROAD_NAME": "JURONG WEST STREET 52",
        "BUILDING": "RULANG PRIMARY SCHOOL",
        "ADDRESS": "6 JURONG WEST STREET 52 RULANG PRIMARY SCHOOL SINGAPORE 649295",
        "POSTAL": "649295",
        "X": "15217.2735802168",
        "Y": "36541.3390983045",
        "LATITUDE": "1.34673868889096",
        "LONGITUDE": "103.718457955487",
        "LONGTITUDE": "103.718457955487"
    },
    {
        "SEARCHVAL": "MOE KINDERGARTEN @ SEMBAWANG",
        "BLK_NO": "10",
        "ROAD_NAME": "SEMBAWANG DRIVE",
        "BUILDING": "MOE KINDERGARTEN @ SEMBAWANG",
        "ADDRESS": "10 SEMBAWANG DRIVE MOE KINDERGARTEN @ SEMBAWANG SINGAPORE 757715",
        "POSTAL": "757715",
        "X": "26646.1261990219",
        "Y": "47488.6922037564",
        "LATITUDE": "1.4457453096024",
        "LONGITUDE": "103.821152676215",
        "LONGTITUDE": "103.821152676215"
    },
    {
        "SEARCHVAL": "QSF - THE ENABLERS STUDENT CARE @ SENGKANG PRIMARY",
        "BLK_NO": "21",
        "ROAD_NAME": "COMPASSVALE WALK",
        "BUILDING": "QSF - THE ENABLERS STUDENT CARE @ SENGKANG PRIMARY",
        "ADDRESS": "21 COMPASSVALE WALK QSF - THE ENABLERS STUDENT CARE @ SENGKANG PRIMARY SINGAPORE 545166",
        "POSTAL": "545166",
        "X": "35368.2352863764",
        "Y": "41241.8749130946",
        "LATITUDE": "1.38925044778224",
        "LONGITUDE": "103.899527879229",
        "LONGTITUDE": "103.899527879229"
    },
    {
        "SEARCHVAL": "MOE KINDERGARTEN @ SENGKANG GREEN",
        "BLK_NO": "15",
        "ROAD_NAME": "FERNVALE ROAD",
        "BUILDING": "MOE KINDERGARTEN @ SENGKANG GREEN",
        "ADDRESS": "15 FERNVALE ROAD MOE KINDERGARTEN @ SENGKANG GREEN SINGAPORE 797636",
        "POSTAL": "797636",
        "X": "32636.9100054335",
        "Y": "41605.5649867393",
        "LATITUDE": "1.3925400930811",
        "LONGITUDE": "103.874984869551",
        "LONGTITUDE": "103.874984869551"
    },
    {
        "SEARCHVAL": "MOE KINDERGARTEN @ SHUQUN",
        "BLK_NO": "8",
        "ROAD_NAME": "JURONG WEST STREET 51",
        "BUILDING": "MOE KINDERGARTEN @ SHUQUN",
        "ADDRESS": "8 JURONG WEST STREET 51 MOE KINDERGARTEN @ SHUQUN SINGAPORE 649332",
        "POSTAL": "649332",
        "X": "15562.4299923396",
        "Y": "36555.8065891601",
        "LATITUDE": "1.34686967259067",
        "LONGITUDE": "103.721559387203",
        "LONGTITUDE": "103.721559387203"
    },
    {
        "SEARCHVAL": "SI LING PRIMARY SCHOOL",
        "BLK_NO": "61",
        "ROAD_NAME": "WOODLANDS AVENUE 1",
        "BUILDING": "SI LING PRIMARY SCHOOL",
        "ADDRESS": "61 WOODLANDS AVENUE 1 SI LING PRIMARY SCHOOL SINGAPORE 739067",
        "POSTAL": "739067",
        "X": "22738.0565941427",
        "Y": "46014.1202728488",
        "LATITUDE": "1.43240935732525",
        "LONGITUDE": "103.786035065192",
        "LONGTITUDE": "103.786035065192"
    },
    {
        "SEARCHVAL": "SINGAPORE CHINESE GIRLS' SCHOOL",
        "BLK_NO": "190",
        "ROAD_NAME": "DUNEARN ROAD",
        "BUILDING": "SINGAPORE CHINESE GIRLS' SCHOOL",
        "ADDRESS": "190 DUNEARN ROAD SINGAPORE CHINESE GIRLS' SCHOOL SINGAPORE 309437",
        "POSTAL": "309437",
        "X": "27426.4538880838",
        "Y": "33654.5249451734",
        "LATITUDE": "1.3206340835184",
        "LONGITUDE": "103.828164966953",
        "LONGTITUDE": "103.828164966953"
    },
    {
        "SEARCHVAL": "PRO-TEACH SCHOOLCARE (SOUTH VIEW PRIMARY)",
        "BLK_NO": "6",
        "ROAD_NAME": "CHOA CHU KANG CENTRAL",
        "BUILDING": "PRO-TEACH SCHOOLCARE (SOUTH VIEW PRIMARY)",
        "ADDRESS": "6 CHOA CHU KANG CENTRAL PRO-TEACH SCHOOLCARE (SOUTH VIEW PRIMARY) SINGAPORE 689762",
        "POSTAL": "689762",
        "X": "18410.9318699865",
        "Y": "40377.3373044748",
        "LATITUDE": "1.38143123987698",
        "LONGITUDE": "103.747153671",
        "LONGTITUDE": "103.747153671"
    },
    {
        "SEARCHVAL": "MOE KINDERGARTEN @ SPRINGDALE",
        "BLK_NO": "71",
        "ROAD_NAME": "ANCHORVALE LINK",
        "BUILDING": "MOE KINDERGARTEN @ SPRINGDALE",
        "ADDRESS": "71 ANCHORVALE LINK MOE KINDERGARTEN @ SPRINGDALE SINGAPORE 544799",
        "POSTAL": "544799",
        "X": "34242.9442041246",
        "Y": "41909.1654851716",
        "LATITUDE": "1.39528544463377",
        "LONGITUDE": "103.889416413501",
        "LONGTITUDE": "103.889416413501"
    },
    {
        "SEARCHVAL": "SAINT ANDREW'S JUNIOR SCHOOL",
        "BLK_NO": "2",
        "ROAD_NAME": "FRANCIS THOMAS DRIVE",
        "BUILDING": "SAINT ANDREW'S JUNIOR SCHOOL",
        "ADDRESS": "2 FRANCIS THOMAS DRIVE SAINT ANDREW'S JUNIOR SCHOOL SINGAPORE 359337",
        "POSTAL": "359337",
        "X": "31538.8499082169",
        "Y": "34845.2692709584",
        "LATITUDE": "1.33140255308868",
        "LONGITUDE": "103.865117134385",
        "LONGTITUDE": "103.865117134385"
    },
    {
        "SEARCHVAL": "SAINT ANTHONY'S CANOSSIAN PRIMARY SCHOOL",
        "BLK_NO": "1602",
        "ROAD_NAME": "BEDOK NORTH AVENUE 4",
        "BUILDING": "SAINT ANTHONY'S CANOSSIAN PRIMARY SCHOOL",
        "ADDRESS": "1602 BEDOK NORTH AVENUE 4 SAINT ANTHONY'S CANOSSIAN PRIMARY SCHOOL SINGAPORE 469701",
        "POSTAL": "469701",
        "X": "40009.9558383394",
        "Y": "35212.930261923",
        "LATITUDE": "1.3347253730189",
        "LONGITUDE": "103.941234868202",
        "LONGTITUDE": "103.941234868202"
    },
    {
        "SEARCHVAL": "SAINT ANTHONY'S PRIMARY SCHOOL",
        "BLK_NO": "30",
        "ROAD_NAME": "BUKIT BATOK STREET 32",
        "BUILDING": "SAINT ANTHONY'S PRIMARY SCHOOL",
        "ADDRESS": "30 BUKIT BATOK STREET 32 SAINT ANTHONY'S PRIMARY SCHOOL SINGAPORE 659401",
        "POSTAL": "659401",
        "X": "18644.3733009221",
        "Y": "38463.0810494516",
        "LATITUDE": "1.36411948475833",
        "LONGITUDE": "103.749251919049",
        "LONGTITUDE": "103.749251919049"
    },
    {
        "SEARCHVAL": "MORNING STAR COMMUNITY SERVICES (SGPS)",
        "BLK_NO": "220",
        "ROAD_NAME": "LORONG CHUAN",
        "BUILDING": "MORNING STAR COMMUNITY SERVICES (SGPS)",
        "ADDRESS": "220 LORONG CHUAN MORNING STAR COMMUNITY SERVICES (SGPS) SINGAPORE 556742",
        "POSTAL": "556742",
        "X": "31226.4103413029",
        "Y": "36825.1216646656",
        "LATITUDE": "1.34930766795555",
        "LONGITUDE": "103.862309899986",
        "LONGTITUDE": "103.862309899986"
    },
    {
        "SEARCHVAL": "CHAPEL OF CHRIST THE REDEEMER",
        "BLK_NO": "2",
        "ROAD_NAME": "TAMPINES AVENUE 3",
        "BUILDING": "CHAPEL OF CHRIST THE REDEEMER",
        "ADDRESS": "2 TAMPINES AVENUE 3 CHAPEL OF CHRIST THE REDEEMER SINGAPORE 529706",
        "POSTAL": "529706",
        "X": "39540.4096965808",
        "Y": "36866.4956980404",
        "LATITUDE": "1.34967978969837",
        "LONGITUDE": "103.937016363397",
        "LONGTITUDE": "103.937016363397"
    },
    {
        "SEARCHVAL": "MORNING STAR COMMUNITY SERVICES (ST JOSEPH'S INSTITUTION JUNIOR)",
        "BLK_NO": "3",
        "ROAD_NAME": "ESSEX ROAD",
        "BUILDING": "MORNING STAR COMMUNITY SERVICES (ST JOSEPH'S INSTITUTION JUNIOR)",
        "ADDRESS": "3 ESSEX ROAD MORNING STAR COMMUNITY SERVICES (ST JOSEPH'S INSTITUTION JUNIOR) SINGAPORE 309331",
        "POSTAL": "309331",
        "X": "29370.5121512143",
        "Y": "33342.7815418858",
        "LATITUDE": "1.31781476118551",
        "LONGITUDE": "103.845633334522",
        "LONGTITUDE": "103.845633334522"
    },
    {
        "SEARCHVAL": "SAINT MARGARET'S PRIMARY SCHOOL",
        "BLK_NO": "2",
        "ROAD_NAME": "MATTAR ROAD",
        "BUILDING": "SAINT MARGARET'S PRIMARY SCHOOL",
        "ADDRESS": "2 MATTAR ROAD SAINT MARGARET'S PRIMARY SCHOOL SINGAPORE 387724",
        "POSTAL": "387724",
        "X": "33376.0018041981",
        "Y": "34070.0528455041",
        "LATITUDE": "1.32439150290682",
        "LONGITUDE": "103.881624837373",
        "LONGTITUDE": "103.881624837373"
    },
    {
        "SEARCHVAL": "SAINT STEPHEN'S SCHOOL",
        "BLK_NO": "20",
        "ROAD_NAME": "SIGLAP VIEW",
        "BUILDING": "SAINT STEPHEN'S SCHOOL",
        "ADDRESS": "20 SIGLAP VIEW SAINT STEPHEN'S SCHOOL SINGAPORE 455789",
        "POSTAL": "455789",
        "X": "37341.652827817",
        "Y": "33450.7695051655",
        "LATITUDE": "1.31878997295135",
        "LONGITUDE": "103.917258129598",
        "LONGTITUDE": "103.917258129598"
    },
    {
        "SEARCHVAL": "STAMFORD CAREHUT",
        "BLK_NO": "1",
        "ROAD_NAME": "VICTORIA LANE",
        "BUILDING": "STAMFORD CAREHUT",
        "ADDRESS": "1 VICTORIA LANE STAMFORD CAREHUT SINGAPORE 198423",
        "POSTAL": "198423",
        "X": "30630.5325063402",
        "Y": "31799.7003907356",
        "LATITUDE": "1.30385959862559",
        "LONGITUDE": "103.856955133139",
        "LONGTITUDE": "103.856955133139"
    },
    {
        "SEARCHVAL": "BIG HEART STUDENT CARE (TAMPINES NORTH PRIMARY SCHOOL)",
        "BLK_NO": "30",
        "ROAD_NAME": "TAMPINES AVENUE 9",
        "BUILDING": "BIG HEART STUDENT CARE (TAMPINES NORTH PRIMARY SCHOOL)",
        "ADDRESS": "30 TAMPINES AVENUE 9 BIG HEART STUDENT CARE (TAMPINES NORTH PRIMARY SCHOOL) SINGAPORE 529565",
        "POSTAL": "529565",
        "X": "40848.2810703805",
        "Y": "38061.6583322138",
        "LATITUDE": "1.36048786025607",
        "LONGITUDE": "103.948768900518",
        "LONGTITUDE": "103.948768900518"
    },
    {
        "SEARCHVAL": "MOE KINDERGARTEN @ TAMPINES PRIMARY",
        "BLK_NO": "250",
        "ROAD_NAME": "TAMPINES STREET 12",
        "BUILDING": "MOE KINDERGARTEN @ TAMPINES PRIMARY",
        "ADDRESS": "250 TAMPINES STREET 12 MOE KINDERGARTEN @ TAMPINES PRIMARY SINGAPORE 529426",
        "POSTAL": "529426",
        "X": "40251.1018029228",
        "Y": "36895.6687979829",
        "LATITUDE": "1.34994333795888",
        "LONGITUDE": "103.943402379754",
        "LONGTITUDE": "103.943402379754"
    },
    {
        "SEARCHVAL": "AFTERSCHOOL @ TANJONG KATONG PRIMARY SCHOOL",
        "BLK_NO": "10",
        "ROAD_NAME": "SERAYA ROAD",
        "BUILDING": "AFTERSCHOOL @ TANJONG KATONG PRIMARY SCHOOL",
        "ADDRESS": "10 SERAYA ROAD AFTERSCHOOL @ TANJONG KATONG PRIMARY SCHOOL SINGAPORE 437259",
        "POSTAL": "437259",
        "X": "35421.0272507127",
        "Y": "31924.2153390218",
        "LATITUDE": "1.30498489044822",
        "LONGITUDE": "103.899999965407",
        "LONGTITUDE": "103.899999965407"
    },
    {
        "SEARCHVAL": "TAO NAN SCHOOL",
        "BLK_NO": "49",
        "ROAD_NAME": "MARINE CRESCENT",
        "BUILDING": "TAO NAN SCHOOL",
        "ADDRESS": "49 MARINE CRESCENT TAO NAN SCHOOL SINGAPORE 449761",
        "POSTAL": "449761",
        "X": "36706.7907984024",
        "Y": "31957.4686842412",
        "LATITUDE": "1.30528528687321",
        "LONGITUDE": "103.911553152326",
        "LONGTITUDE": "103.911553152326"
    },
    {
        "SEARCHVAL": "NASCANS @ TECK GHEE",
        "BLK_NO": "1",
        "ROAD_NAME": "ANG MO KIO STREET 32",
        "BUILDING": "NASCANS @ TECK GHEE",
        "ADDRESS": "1 ANG MO KIO STREET 32 NASCANS @ TECK GHEE SINGAPORE 569299",
        "POSTAL": "569299",
        "X": "29968.822170008",
        "Y": "38632.1819182038",
        "LATITUDE": "1.36565018546903",
        "LONGITUDE": "103.851009800453",
        "LONGTITUDE": "103.851009800453"
    },
    {
        "SEARCHVAL": "SHG STUDENT CARE (TECK WHYE PRIMARY SCHOOL)",
        "BLK_NO": "11",
        "ROAD_NAME": "TECK WHYE WALK",
        "BUILDING": "SHG STUDENT CARE (TECK WHYE PRIMARY SCHOOL)",
        "ADDRESS": "11 TECK WHYE WALK SHG STUDENT CARE (TECK WHYE PRIMARY SCHOOL) SINGAPORE 688261",
        "POSTAL": "688261",
        "X": "19164.4558974076",
        "Y": "40648.8130902648",
        "LATITUDE": "1.38388660469396",
        "LONGITUDE": "103.753924558586",
        "LONGTITUDE": "103.753924558586"
    },
    {
        "SEARCHVAL": "KOWABUNGA KIDZ TREEHOUSE @ TELOK KURAU PRIMARY",
        "BLK_NO": "50",
        "ROAD_NAME": "BEDOK RESERVOIR ROAD",
        "BUILDING": "KOWABUNGA KIDZ TREEHOUSE @ TELOK KURAU PRIMARY",
        "ADDRESS": "50 BEDOK RESERVOIR ROAD KOWABUNGA KIDZ TREEHOUSE @ TELOK KURAU PRIMARY SINGAPORE 479239",
        "POSTAL": "479239",
        "X": "36645.7359166555",
        "Y": "34811.4976773225",
        "LATITUDE": "1.33109611001931",
        "LONGITUDE": "103.911005345855",
        "LONGTITUDE": "103.911005345855"
    },
    {
        "SEARCHVAL": "MOE KINDERGARTEN @ TEMASEK",
        "BLK_NO": "501",
        "ROAD_NAME": "BEDOK SOUTH AVENUE 3",
        "BUILDING": "MOE KINDERGARTEN @ TEMASEK",
        "ADDRESS": "501 BEDOK SOUTH AVENUE 3 MOE KINDERGARTEN @ TEMASEK SINGAPORE 469300",
        "POSTAL": "469300",
        "X": "40513.5817926126",
        "Y": "33275.4610059001",
        "LATITUDE": "1.31720341663064",
        "LONGITUDE": "103.94575943784",
        "LONGTITUDE": "103.94575943784"
    },
    {
        "SEARCHVAL": "PRO-TEACH SCHOOLCARE (TOWNSVILLE) LLP",
        "BLK_NO": "3",
        "ROAD_NAME": "ANG MO KIO AVENUE 10",
        "BUILDING": "PRO-TEACH SCHOOLCARE (TOWNSVILLE) LLP",
        "ADDRESS": "3 ANG MO KIO AVENUE 10 PRO-TEACH SCHOOLCARE (TOWNSVILLE) LLP SINGAPORE 569730",
        "POSTAL": "569730",
        "X": "30275.8929835791",
        "Y": "38001.4992617127",
        "LATITUDE": "1.35994649477568",
        "LONGITUDE": "103.853768994775",
        "LONGTITUDE": "103.853768994775"
    },
    {
        "SEARCHVAL": "ALPHAJOY STUDENT CARE CENTRE",
        "BLK_NO": "21",
        "ROAD_NAME": "CHOA CHU KANG CRESCENT",
        "BUILDING": "ALPHAJOY STUDENT CARE CENTRE",
        "ADDRESS": "21 CHOA CHU KANG CRESCENT ALPHAJOY STUDENT CARE CENTRE SINGAPORE 688268",
        "POSTAL": "688268",
        "X": "18371.796668564",
        "Y": "42738.3144028578",
        "LATITUDE": "1.40278303219036",
        "LONGITUDE": "103.746801233973",
        "LONGTITUDE": "103.746801233973"
    },
    {
        "SEARCHVAL": "MOE KINDERGARTEN @ VALOUR",
        "BLK_NO": "49",
        "ROAD_NAME": "PUNGGOL CENTRAL",
        "BUILDING": "MOE KINDERGARTEN @ VALOUR",
        "ADDRESS": "49 PUNGGOL CENTRAL MOE KINDERGARTEN @ VALOUR SINGAPORE 828728",
        "POSTAL": "828728",
        "X": "35282.966108459",
        "Y": "43253.3683976009",
        "LATITUDE": "1.40744168163777",
        "LONGITUDE": "103.898762173662",
        "LONGTITUDE": "103.898762173662"
    },
    {
        "SEARCHVAL": "MOE KINDERGARTEN @ WATERWAY",
        "BLK_NO": "70",
        "ROAD_NAME": "PUNGGOL DRIVE",
        "BUILDING": "MOE KINDERGARTEN @ WATERWAY",
        "ADDRESS": "70 PUNGGOL DRIVE MOE KINDERGARTEN @ WATERWAY SINGAPORE 828802",
        "POSTAL": "828802",
        "X": "37462.4590097899",
        "Y": "42400.3134934269",
        "LATITUDE": "1.39972633289763",
        "LONGITUDE": "103.918346464803",
        "LONGTITUDE": "103.918346464803"
    },
    {
        "SEARCHVAL": "MOE KINDERGARTEN @ WELLINGTON",
        "BLK_NO": "10",
        "ROAD_NAME": "WELLINGTON CIRCLE",
        "BUILDING": "MOE KINDERGARTEN @ WELLINGTON",
        "ADDRESS": "10 WELLINGTON CIRCLE MOE KINDERGARTEN @ WELLINGTON SINGAPORE 757702",
        "POSTAL": "757702",
        "X": "26797.86901474",
        "Y": "48145.4921045545",
        "LATITUDE": "1.45168517614776",
        "LONGITUDE": "103.822516208087",
        "LONGTITUDE": "103.822516208087"
    },
    {
        "SEARCHVAL": "NASCANS @ WEST GROVE",
        "BLK_NO": "1",
        "ROAD_NAME": "JURONG WEST STREET 72",
        "BUILDING": "NASCANS @ WEST GROVE",
        "ADDRESS": "1 JURONG WEST STREET 72 NASCANS @ WEST GROVE SINGAPORE 649223",
        "POSTAL": "649223",
        "X": "13047.8179963073",
        "Y": "36317.3614973016",
        "LATITUDE": "1.34471211768915",
        "LONGITUDE": "103.698964212988",
        "LONGTITUDE": "103.698964212988"
    },
    {
        "SEARCHVAL": "MOE KINDERGARTEN @ WEST SPRING",
        "BLK_NO": "60",
        "ROAD_NAME": "BUKIT PANJANG RING ROAD",
        "BUILDING": "MOE KINDERGARTEN @ WEST SPRING",
        "ADDRESS": "60 BUKIT PANJANG RING ROAD MOE KINDERGARTEN @ WEST SPRING SINGAPORE 679946",
        "POSTAL": "679946",
        "X": "20552.577593673",
        "Y": "41234.0562994163",
        "LATITUDE": "1.38917971808454",
        "LONGITUDE": "103.76639772288",
        "LONGTITUDE": "103.76639772288"
    },
    {
        "SEARCHVAL": "BIG HEART STUDENT CARE (WEST VIEW PRIMARY SCHOOL)",
        "BLK_NO": "31",
        "ROAD_NAME": "SENJA ROAD",
        "BUILDING": "BIG HEART STUDENT CARE (WEST VIEW PRIMARY SCHOOL)",
        "ADDRESS": "31 SENJA ROAD BIG HEART STUDENT CARE (WEST VIEW PRIMARY SCHOOL) SINGAPORE 677742",
        "POSTAL": "677742",
        "X": "19871.0048010657",
        "Y": "40637.6069141179",
        "LATITUDE": "1.38378546546228",
        "LONGITUDE": "103.760273432258",
        "LONGTITUDE": "103.760273432258"
    },
    {
        "SEARCHVAL": "MOE KINDERGARTEN @ WESTWOOD",
        "BLK_NO": "1",
        "ROAD_NAME": "JURONG WEST STREET 73",
        "BUILDING": "MOE KINDERGARTEN @ WESTWOOD",
        "ADDRESS": "1 JURONG WEST STREET 73 MOE KINDERGARTEN @ WESTWOOD SINGAPORE 649188",
        "POSTAL": "649188",
        "X": "13215.1381995771",
        "Y": "36648.9504975975",
        "LATITUDE": "1.3477109654722",
        "LONGITUDE": "103.700467520791",
        "LONGTITUDE": "103.700467520791"
    },
    {
        "SEARCHVAL": "LEARNING LEAP PTE LTD (WHITE SANDS PRIMARY SCHOOL)",
        "BLK_NO": "2",
        "ROAD_NAME": "PASIR RIS STREET 11",
        "BUILDING": "LEARNING LEAP PTE LTD (WHITE SANDS PRIMARY SCHOOL)",
        "ADDRESS": "2 PASIR RIS STREET 11 LEARNING LEAP PTE LTD (WHITE SANDS PRIMARY SCHOOL) SINGAPORE 519075",
        "POSTAL": "519075",
        "X": "42194.0540739279",
        "Y": "38630.9946565423",
        "LATITUDE": "1.36563610941695",
        "LONGITUDE": "103.960861814678",
        "LONGTITUDE": "103.960861814678"
    },
    {
        "SEARCHVAL": "COMMIT LEARNING SCHOOLHOUSE @ WOODGROVE PRIMARY SCHOOL",
        "BLK_NO": "2",
        "ROAD_NAME": "WOODLANDS DRIVE 14",
        "BUILDING": "COMMIT LEARNING SCHOOLHOUSE @ WOODGROVE PRIMARY SCHOOL",
        "ADDRESS": "2 WOODLANDS DRIVE 14 COMMIT LEARNING SCHOOLHOUSE @ WOODGROVE PRIMARY SCHOOL SINGAPORE 738079",
        "POSTAL": "738079",
        "X": "23204.9254116695",
        "Y": "46050.2524968032",
        "LATITUDE": "1.43273620725049",
        "LONGITUDE": "103.79023031392",
        "LONGTITUDE": "103.79023031392"
    },
    {
        "SEARCHVAL": "COMMIT LEARNING SCHOOLHOUSE @ WOODLANDS PRIMARY SCHOOL",
        "BLK_NO": "10",
        "ROAD_NAME": "WOODLANDS DRIVE 50",
        "BUILDING": "COMMIT LEARNING SCHOOLHOUSE @ WOODLANDS PRIMARY SCHOOL",
        "ADDRESS": "10 WOODLANDS DRIVE 50 COMMIT LEARNING SCHOOLHOUSE @ WOODLANDS PRIMARY SCHOOL SINGAPORE 738853",
        "POSTAL": "738853",
        "X": "23378.645416881",
        "Y": "46475.5760247037",
        "LATITUDE": "1.43658270720199",
        "LONGITUDE": "103.791791282236",
        "LONGTITUDE": "103.791791282236"
    },
    {
        "SEARCHVAL": "POWERLIFE STUDENT SERVICES",
        "BLK_NO": "11",
        "ROAD_NAME": "WOODLANDS RING ROAD",
        "BUILDING": "POWERLIFE STUDENT SERVICES",
        "ADDRESS": "11 WOODLANDS RING ROAD POWERLIFE STUDENT SERVICES SINGAPORE 738240",
        "POSTAL": "738240",
        "X": "24004.4034421528",
        "Y": "46284.1696799081",
        "LATITUDE": "1.43485179380236",
        "LONGITUDE": "103.79741434351",
        "LONGTITUDE": "103.79741434351"
    },
    {
        "SEARCHVAL": "HOME-IN-SCHOOL CONNECTION STUDENT CARE CENTRE",
        "BLK_NO": "45",
        "ROAD_NAME": "HOUGANG AVENUE 1",
        "BUILDING": "HOME-IN-SCHOOL CONNECTION STUDENT CARE CENTRE",
        "ADDRESS": "45 HOUGANG AVENUE 1 HOME-IN-SCHOOL CONNECTION STUDENT CARE CENTRE SINGAPORE 538882",
        "POSTAL": "538882",
        "X": "34332.065497526",
        "Y": "37785.9478133563",
        "LATITUDE": "1.35799653782463",
        "LONGITUDE": "103.890216355459",
        "LONGTITUDE": "103.890216355459"
    },
    {
        "SEARCHVAL": "SHG STUDENT CARE (XINGNAN PRIMARY SCHOOL)",
        "BLK_NO": "5",
        "ROAD_NAME": "JURONG WEST STREET 91",
        "BUILDING": "SHG STUDENT CARE (XINGNAN PRIMARY SCHOOL)",
        "ADDRESS": "5 JURONG WEST STREET 91 SHG STUDENT CARE (XINGNAN PRIMARY SCHOOL) SINGAPORE 649036",
        "POSTAL": "649036",
        "X": "11781.8064267524",
        "Y": "36095.6510288138",
        "LATITUDE": "1.34270639669225",
        "LONGITUDE": "103.687588478681",
        "LONGTITUDE": "103.687588478681"
    },
    {
        "SEARCHVAL": "RAFFLES STUDENT CARE CENTRE LLP (XINMIN PRIMARY)",
        "BLK_NO": "9",
        "ROAD_NAME": "HOUGANG AVENUE 8",
        "BUILDING": "RAFFLES STUDENT CARE CENTRE LLP (XINMIN PRIMARY)",
        "ADDRESS": "9 HOUGANG AVENUE 8 RAFFLES STUDENT CARE CENTRE LLP (XINMIN PRIMARY) SINGAPORE 538784",
        "POSTAL": "538784",
        "X": "33507.7829754585",
        "Y": "39308.7065256815",
        "LATITUDE": "1.37176798317468",
        "LONGITUDE": "103.88280991785",
        "LONGTITUDE": "103.88280991785"
    },
    {
        "SEARCHVAL": "XISHAN PRIMARY SCHOOL",
        "BLK_NO": "8",
        "ROAD_NAME": "YISHUN STREET 21",
        "BUILDING": "XISHAN PRIMARY SCHOOL",
        "ADDRESS": "8 YISHUN STREET 21 XISHAN PRIMARY SCHOOL SINGAPORE 768611",
        "POSTAL": "768611",
        "X": "28493.7422212623",
        "Y": "46131.5536631271",
        "LATITUDE": "1.43347186925064",
        "LONGITUDE": "103.837755319448",
        "LONGTITUDE": "103.837755319448"
    },
    {
        "SEARCHVAL": "BIG HEART STUDENT CARE @ YANGZHENG",
        "BLK_NO": "15",
        "ROAD_NAME": "SERANGOON AVENUE 3",
        "BUILDING": "BIG HEART STUDENT CARE @ YANGZHENG",
        "ADDRESS": "15 SERANGOON AVENUE 3 BIG HEART STUDENT CARE @ YANGZHENG SINGAPORE 556108",
        "POSTAL": "556108",
        "X": "31911.6418975126",
        "Y": "36788.5459239464",
        "LATITUDE": "1.3489768083841",
        "LONGITUDE": "103.868467129954",
        "LONGTITUDE": "103.868467129954"
    },
    {
        "SEARCHVAL": "PRO-TEACH SCHOOLCARE (YEW TEE PRIMARY)",
        "BLK_NO": "10",
        "ROAD_NAME": "CHOA CHU KANG STREET 64",
        "BUILDING": "PRO-TEACH SCHOOLCARE (YEW TEE PRIMARY)",
        "ADDRESS": "10 CHOA CHU KANG STREET 64 PRO-TEACH SCHOOLCARE (YEW TEE PRIMARY) SINGAPORE 689100",
        "POSTAL": "689100",
        "X": "18930.0708015431",
        "Y": "42068.5415837038",
        "LATITUDE": "1.39672603497195",
        "LONGITUDE": "103.751817992962",
        "LONGTITUDE": "103.751817992962"
    },
    {
        "SEARCHVAL": "YIO CHU KANG PRIMARY SCHOOL",
        "BLK_NO": "1",
        "ROAD_NAME": "HOUGANG STREET 51",
        "BUILDING": "YIO CHU KANG PRIMARY SCHOOL",
        "ADDRESS": "1 HOUGANG STREET 51 YIO CHU KANG PRIMARY SCHOOL SINGAPORE 538720",
        "POSTAL": "538720",
        "X": "33823.1315680202",
        "Y": "39990.3703038469",
        "LATITUDE": "1.37793264345276",
        "LONGITUDE": "103.885643682171",
        "LONGTITUDE": "103.885643682171"
    },
    {
        "SEARCHVAL": "MOE KINDERGARTEN @ YISHUN",
        "BLK_NO": "500",
        "ROAD_NAME": "YISHUN RING ROAD",
        "BUILDING": "MOE KINDERGARTEN @ YISHUN",
        "ADDRESS": "500 YISHUN RING ROAD MOE KINDERGARTEN @ YISHUN SINGAPORE 768679",
        "POSTAL": "768679",
        "X": "28081.4848068403",
        "Y": "46187.3166116737",
        "LATITUDE": "1.43397617334964",
        "LONGITUDE": "103.834050796658",
        "LONGTITUDE": "103.834050796658"
    },
    {
        "SEARCHVAL": "BIG HEART STUDENT CARE @ YU NENG",
        "BLK_NO": "56",
        "ROAD_NAME": "BEDOK NORTH STREET 3",
        "BUILDING": "BIG HEART STUDENT CARE @ YU NENG",
        "ADDRESS": "56 BEDOK NORTH STREET 3 BIG HEART STUDENT CARE @ YU NENG SINGAPORE 469623",
        "POSTAL": "469623",
        "X": "38983.8870810149",
        "Y": "35130.5094223451",
        "LATITUDE": "1.33398037894072",
        "LONGITUDE": "103.932015036296",
        "LONGTITUDE": "103.932015036296"
    },
    {
        "SEARCHVAL": "PRO-TEACH SCHOOLCARE (YUHUA)",
        "BLK_NO": "158",
        "ROAD_NAME": "JURONG EAST STREET 24",
        "BUILDING": "PRO-TEACH SCHOOLCARE (YUHUA)",
        "ADDRESS": "158 JURONG EAST STREET 24 PRO-TEACH SCHOOLCARE (YUHUA) SINGAPORE 609558",
        "POSTAL": "609558",
        "X": "17710.4895017752",
        "Y": "36118.9610992391",
        "LATITUDE": "1.34291981622016",
        "LONGITUDE": "103.740861148879",
        "LONGTITUDE": "103.740861148879"
    },
    {
        "SEARCHVAL": "SHG STUDENT CARE (YUMIN PRIMARY SCHOOL)",
        "BLK_NO": "3",
        "ROAD_NAME": "TAMPINES STREET 21",
        "BUILDING": "SHG STUDENT CARE (YUMIN PRIMARY SCHOOL)",
        "ADDRESS": "3 TAMPINES STREET 21 SHG STUDENT CARE (YUMIN PRIMARY SCHOOL) SINGAPORE 529393",
        "POSTAL": "529393",
        "X": "41046.6676057065",
        "Y": "37047.4549574535",
        "LATITUDE": "1.35131569890862",
        "LONGITUDE": "103.950551091373",
        "LONGTITUDE": "103.950551091373"
    },
    {
        "SEARCHVAL": "YMCA STUDENT CARE CENTRE @ ZHANGDE",
        "BLK_NO": "51",
        "ROAD_NAME": "JALAN MEMBINA",
        "BUILDING": "YMCA STUDENT CARE CENTRE @ ZHANGDE",
        "ADDRESS": "51 JALAN MEMBINA YMCA STUDENT CARE CENTRE @ ZHANGDE SINGAPORE 169485",
        "POSTAL": "169485",
        "X": "27180.147898172",
        "Y": "29627.1081054062",
        "LATITUDE": "1.28421153855474",
        "LONGITUDE": "103.825951884637",
        "LONGTITUDE": "103.825951884637"
    },
    {
        "SEARCHVAL": "MOE KINDERGARTEN @ ZHENGHUA",
        "BLK_NO": "9",
        "ROAD_NAME": "FAJAR ROAD",
        "BUILDING": "MOE KINDERGARTEN @ ZHENGHUA",
        "ADDRESS": "9 FAJAR ROAD MOE KINDERGARTEN @ ZHENGHUA SINGAPORE 679002",
        "POSTAL": "679002",
        "X": "20920.4023949644",
        "Y": "40155.8313870206",
        "LATITUDE": "1.37942873617052",
        "LONGITUDE": "103.76970317201",
        "LONGTITUDE": "103.76970317201"
    },
    {
        "SEARCHVAL": "LEARNING STUDIO BY ZENITANT (ZHONGHUA PRIMARY SCHOOL)",
        "BLK_NO": "12",
        "ROAD_NAME": "SERANGOON AVENUE 4",
        "BUILDING": "LEARNING STUDIO BY ZENITANT (ZHONGHUA PRIMARY SCHOOL)",
        "ADDRESS": "12 SERANGOON AVENUE 4 LEARNING STUDIO BY ZENITANT (ZHONGHUA PRIMARY SCHOOL) SINGAPORE 556095",
        "POSTAL": "556095",
        "X": "32050.2209249679",
        "Y": "38036.2660969216",
        "LATITUDE": "1.36026072476019",
        "LONGITUDE": "103.869712517383",
        "LONGTITUDE": "103.869712517383"
    },
    {
        "SEARCHVAL": "ADMIRALTY SECONDARY SCHOOL",
        "BLK_NO": "31",
        "ROAD_NAME": "WOODLANDS CRESCENT",
        "BUILDING": "ADMIRALTY SECONDARY SCHOOL",
        "ADDRESS": "31 WOODLANDS CRESCENT ADMIRALTY SECONDARY SCHOOL SINGAPORE 737916",
        "POSTAL": "737916",
        "X": "24559.0472937012",
        "Y": "47504.7873554379",
        "LATITUDE": "1.44589068910993",
        "LONGITUDE": "103.802398196596",
        "LONGTITUDE": "103.802398196596"
    },
    {
        "SEARCHVAL": "AHMAD IBRAHIM SECONDARY SCHOOL",
        "BLK_NO": "751",
        "ROAD_NAME": "YISHUN AVENUE 7",
        "BUILDING": "AHMAD IBRAHIM SECONDARY SCHOOL",
        "ADDRESS": "751 YISHUN AVENUE 7 AHMAD IBRAHIM SECONDARY SCHOOL SINGAPORE 768928",
        "POSTAL": "768928",
        "X": "27599.3872889336",
        "Y": "46417.7087551262",
        "LATITUDE": "1.43605975368804",
        "LONGITUDE": "103.829718690077",
        "LONGTITUDE": "103.829718690077"
    },
    {
        "SEARCHVAL": "ANDERSON SECONDARY SCHOOL",
        "BLK_NO": "10",
        "ROAD_NAME": "ANG MO KIO STREET 53",
        "BUILDING": "ANDERSON SECONDARY SCHOOL",
        "ADDRESS": "10 ANG MO KIO STREET 53 ANDERSON SECONDARY SCHOOL SINGAPORE 569206",
        "POSTAL": "569206",
        "X": "30029.3897069497",
        "Y": "39593.0597646087",
        "LATITUDE": "1.37434001701177",
        "LONGITUDE": "103.851554107068",
        "LONGTITUDE": "103.851554107068"
    },
    {
        "SEARCHVAL": "ANG MO KIO SECONDARY SCHOOL",
        "BLK_NO": "6",
        "ROAD_NAME": "ANG MO KIO STREET 22",
        "BUILDING": "ANG MO KIO SECONDARY SCHOOL",
        "ADDRESS": "6 ANG MO KIO STREET 22 ANG MO KIO SECONDARY SCHOOL SINGAPORE 569362",
        "POSTAL": "569362",
        "X": "28983.3847605418",
        "Y": "38818.7070966065",
        "LATITUDE": "1.36733710171069",
        "LONGITUDE": "103.842154973672",
        "LONGTITUDE": "103.842154973672"
    },
    {
        "SEARCHVAL": "ALL SAINTS' CHURCH, SINGAPORE",
        "BLK_NO": "600",
        "ROAD_NAME": "UPPER CHANGI ROAD",
        "BUILDING": "ALL SAINTS' CHURCH, SINGAPORE",
        "ADDRESS": "600 UPPER CHANGI ROAD ALL SAINTS' CHURCH, SINGAPORE SINGAPORE 487012",
        "POSTAL": "487012",
        "X": "39993.0203263573",
        "Y": "34754.6941457652",
        "LATITUDE": "1.33058126205128",
        "LONGITUDE": "103.941082513081",
        "LONGTITUDE": "103.941082513081"
    },
    {
        "SEARCHVAL": "ANGLO-CHINESE SCHOOL (BARKER ROAD)",
        "BLK_NO": "60",
        "ROAD_NAME": "BARKER ROAD",
        "BUILDING": "ANGLO-CHINESE SCHOOL (BARKER ROAD)",
        "ADDRESS": "60 BARKER ROAD ANGLO-CHINESE SCHOOL (BARKER ROAD) SINGAPORE 309919",
        "POSTAL": "309919",
        "X": "28273.1184036592",
        "Y": "33542.0043816008",
        "LATITUDE": "1.31961649151328",
        "LONGITUDE": "103.835772689988",
        "LONGTITUDE": "103.835772689988"
    },
    {
        "SEARCHVAL": "BOYS' TOWN SINGAPORE",
        "BLK_NO": "622",
        "ROAD_NAME": "UPPER BUKIT TIMAH ROAD",
        "BUILDING": "BOYS' TOWN SINGAPORE",
        "ADDRESS": "622 UPPER BUKIT TIMAH ROAD BOYS' TOWN SINGAPORE SINGAPORE 678117",
        "POSTAL": "678117",
        "X": "20723.8791869851",
        "Y": "39020.6978526283",
        "LATITUDE": "1.36916295281535",
        "LONGITUDE": "103.767937546001",
        "LONGTITUDE": "103.767937546001"
    },
    {
        "SEARCHVAL": "BROADRICK SECONDARY SCHOOL",
        "BLK_NO": "61",
        "ROAD_NAME": "DAKOTA CRESCENT",
        "BUILDING": "BROADRICK SECONDARY SCHOOL",
        "ADDRESS": "61 DAKOTA CRESCENT BROADRICK SECONDARY SCHOOL SINGAPORE 399935",
        "POSTAL": "399935",
        "X": "33965.1104164785",
        "Y": "32152.5974159427",
        "LATITUDE": "1.30705061123433",
        "LONGITUDE": "103.886917922608",
        "LONGTITUDE": "103.886917922608"
    },
    {
        "SEARCHVAL": "ASSUMPTION PATHWAY SCHOOL",
        "BLK_NO": "30",
        "ROAD_NAME": "CASHEW ROAD",
        "BUILDING": "ASSUMPTION PATHWAY SCHOOL",
        "ADDRESS": "30 CASHEW ROAD ASSUMPTION PATHWAY SCHOOL SINGAPORE 679697",
        "POSTAL": "679697",
        "X": "20503.7068768945",
        "Y": "39076.8485643137",
        "LATITUDE": "1.3696707043227",
        "LONGITUDE": "103.765959130581",
        "LONGTITUDE": "103.765959130581"
    },
    {
        "SEARCHVAL": "BARTLEY SECONDARY SCHOOL",
        "BLK_NO": "10",
        "ROAD_NAME": "JALAN BUNGA RAMPAI",
        "BUILDING": "BARTLEY SECONDARY SCHOOL",
        "ADDRESS": "10 JALAN BUNGA RAMPAI BARTLEY SECONDARY SCHOOL SINGAPORE 538403",
        "POSTAL": "538403",
        "X": "33507.4424001053",
        "Y": "35790.8945052791",
        "LATITUDE": "1.33995415587811",
        "LONGITUDE": "103.882806211705",
        "LONGTITUDE": "103.882806211705"
    },
    {
        "SEARCHVAL": "BEATTY SECONDARY SCHOOL",
        "BLK_NO": "1",
        "ROAD_NAME": "TOA PAYOH NORTH",
        "BUILDING": "BEATTY SECONDARY SCHOOL",
        "ADDRESS": "1 TOA PAYOH NORTH BEATTY SECONDARY SCHOOL SINGAPORE 318990",
        "POSTAL": "318990",
        "X": "30110.2946048304",
        "Y": "35993.876840448",
        "LATITUDE": "1.341790284928",
        "LONGITUDE": "103.852280842345",
        "LONGTITUDE": "103.852280842345"
    },
    {
        "SEARCHVAL": "BEDOK GREEN SECONDARY SCHOOL",
        "BLK_NO": "360",
        "ROAD_NAME": "BEDOK NORTH AVENUE 3",
        "BUILDING": "BEDOK GREEN SECONDARY SCHOOL",
        "ADDRESS": "360 BEDOK NORTH AVENUE 3 BEDOK GREEN SECONDARY SCHOOL SINGAPORE 469722",
        "POSTAL": "469722",
        "X": "39319.2390878517",
        "Y": "35190.1334154308",
        "LATITUDE": "1.33451947288431",
        "LONGITUDE": "103.935028383346",
        "LONGTITUDE": "103.935028383346"
    },
    {
        "SEARCHVAL": "BEDOK SOUTH SECONDARY SCHOOL",
        "BLK_NO": "1",
        "ROAD_NAME": "JALAN LANGGAR BEDOK",
        "BUILDING": "BEDOK SOUTH SECONDARY SCHOOL",
        "ADDRESS": "1 JALAN LANGGAR BEDOK BEDOK SOUTH SECONDARY SCHOOL SINGAPORE 468585",
        "POSTAL": "468585",
        "X": "41095.5563319344",
        "Y": "34152.6950651146",
        "LATITUDE": "1.32513655159184",
        "LONGITUDE": "103.950989139261",
        "LONGTITUDE": "103.950989139261"
    },
    {
        "SEARCHVAL": "BEDOK VIEW SECONDARY SCHOOL",
        "BLK_NO": "6",
        "ROAD_NAME": "BEDOK SOUTH AVENUE 3",
        "BUILDING": "BEDOK VIEW SECONDARY SCHOOL",
        "ADDRESS": "6 BEDOK SOUTH AVENUE 3 BEDOK VIEW SECONDARY SCHOOL SINGAPORE 469293",
        "POSTAL": "469293",
        "X": "40292.8371452186",
        "Y": "34044.3485775683",
        "LATITUDE": "1.32415704029686",
        "LONGITUDE": "103.943776245024",
        "LONGTITUDE": "103.943776245024"
    },
    {
        "SEARCHVAL": "BENDEMEER SECONDARY SCHOOL",
        "BLK_NO": "1",
        "ROAD_NAME": "SAINT WILFRED ROAD",
        "BUILDING": "BENDEMEER SECONDARY SCHOOL",
        "ADDRESS": "1 SAINT WILFRED ROAD BENDEMEER SECONDARY SCHOOL SINGAPORE 327919",
        "POSTAL": "327919",
        "X": "31077.3568056701",
        "Y": "34094.3010115474",
        "LATITUDE": "1.32461111307996",
        "LONGITUDE": "103.860970284401",
        "LONGTITUDE": "103.860970284401"
    },
    {
        "SEARCHVAL": "BOON LAY SECONDARY SCHOOL",
        "BLK_NO": "11",
        "ROAD_NAME": "JURONG WEST STREET 65",
        "BUILDING": "BOON LAY SECONDARY SCHOOL",
        "ADDRESS": "11 JURONG WEST STREET 65 BOON LAY SECONDARY SCHOOL SINGAPORE 648354",
        "POSTAL": "648354",
        "X": "13373.5768683841",
        "Y": "36097.304205548",
        "LATITUDE": "1.34272216334333",
        "LONGITUDE": "103.701891453912",
        "LONGTITUDE": "103.701891453912"
    },
    {
        "SEARCHVAL": "BOWEN SECONDARY SCHOOL",
        "BLK_NO": "2",
        "ROAD_NAME": "LORONG NAPIRI",
        "BUILDING": "BOWEN SECONDARY SCHOOL",
        "ADDRESS": "2 LORONG NAPIRI BOWEN SECONDARY SCHOOL SINGAPORE 547529",
        "POSTAL": "547529",
        "X": "32934.6156324307",
        "Y": "39153.0014795549",
        "LATITUDE": "1.37035994436209",
        "LONGITUDE": "103.877659577677",
        "LONGTITUDE": "103.877659577677"
    },