[
    {
        "SEARCHVAL": "ANDERSON SERANGOON JUNIOR COLLEGE",
        "BLK_NO": "4500",
        "ROAD_NAME": "ANG MO KIO AVENUE 6",
        "BUILDING": "ANDERSON SERANGOON JUNIOR COLLEGE",
        "ADDRESS": "4500 ANG MO KIO AVENUE 6 ANDERSON SERANGOON JUNIOR COLLEGE SINGAPORE 569843",
        "POSTAL": "569843",
        "X": "29384.6783545613",
        "Y": "40102.1495742314",
        "LATITUDE": "1.37894408046934",
        "LONGITUDE": "103.845760935132",
        "LONGTITUDE": "103.845760935132"
    },
    {
        "SEARCHVAL": "ANGLO-CHINESE JUNIOR COLLEGE",
        "BLK_NO": "25",
        "ROAD_NAME": "DOVER CLOSE EAST",
        "BUILDING": "ANGLO-CHINESE JUNIOR COLLEGE",
        "ADDRESS": "25 DOVER CLOSE EAST ANGLO-CHINESE JUNIOR COLLEGE SINGAPORE 139745",
        "POSTAL": "139745",
        "X": "22662.4720813679",
        "Y": "31709.3940755054",
        "LATITUDE": "1.30304255193392",
        "LONGITUDE": "103.785358436408",
        "LONGTITUDE": "103.785358436408"
    },
    {
        "SEARCHVAL": "CATHOLIC JUNIOR COLLEGE",
        "BLK_NO": "129",
        "ROAD_NAME": "WHITLEY ROAD",
        "BUILDING": "CATHOLIC JUNIOR COLLEGE",
        "ADDRESS": "129 WHITLEY ROAD CATHOLIC JUNIOR COLLEGE SINGAPORE 297822",
        "POSTAL": "297822",
        "X": "28190.3351049758",
        "Y": "34088.1962013766",
        "LATITUDE": "1.32455605783219",
        "LONGITUDE": "103.835028842353",
        "LONGTITUDE": "103.835028842353"
    },
    {
        "SEARCHVAL": "EUNOIA JUNIOR COLLEGE",
        "BLK_NO": "2",
        "ROAD_NAME": "SIN MING PLACE",
        "BUILDING": "EUNOIA JUNIOR COLLEGE",
        "ADDRESS": "2 SIN MING PLACE EUNOIA JUNIOR COLLEGE SINGAPORE 573838",
        "POSTAL": "573838",
        "X": "28886.6991347941",
        "Y": "38243.7692278698",
        "LATITUDE": "1.36213757183547",
        "LONGITUDE": "103.841286169122",
        "LONGTITUDE": "103.841286169122"
    },
    {
        "SEARCHVAL": "JURONG PIONEER JUNIOR COLLEGE",
        "BLK_NO": "21",
        "ROAD_NAME": "TECK WHYE WALK",
        "BUILDING": "JURONG PIONEER JUNIOR COLLEGE",
        "ADDRESS": "21 TECK WHYE WALK JURONG PIONEER JUNIOR COLLEGE SINGAPORE 688258",
        "POSTAL": "688258",
        "X": "19214.5432963269",
        "Y": "40702.7122574467",
        "LATITUDE": "1.38437406410733",
        "LONGITUDE": "103.75437461519",
        "LONGTITUDE": "103.75437461519"
    },
    {
        "SEARCHVAL": "NANYANG JUNIOR COLLEGE",
        "BLK_NO": "128",
        "ROAD_NAME": "SERANGOON AVENUE 3",
        "BUILDING": "NANYANG JUNIOR COLLEGE",
        "ADDRESS": "128 SERANGOON AVENUE 3 NANYANG JUNIOR COLLEGE SINGAPORE 556111",
        "POSTAL": "556111",
        "X": "31692.5780312549",
        "Y": "36932.9914012011",
        "LATITUDE": "1.35028314949236",
        "LONGITUDE": "103.866498721912",
        "LONGTITUDE": "103.866498721912"
    },
    {
        "SEARCHVAL": "SAINT ANDREW'S JUNIOR COLLEGE",
        "BLK_NO": "5",
        "ROAD_NAME": "SORBY ADAMS DRIVE",
        "BUILDING": "SAINT ANDREW'S JUNIOR COLLEGE",
        "ADDRESS": "5 SORBY ADAMS DRIVE SAINT ANDREW'S JUNIOR COLLEGE SINGAPORE 357691",
        "POSTAL": "357691",
        "X": "31367.377300797",
        "Y": "35029.1094067935",
        "LATITUDE": "1.33306515740956",
        "LONGITUDE": "103.863576377056",
        "LONGTITUDE": "103.863576377056"
    },
    {
        "SEARCHVAL": "TAMPINES MERIDIAN JUNIOR COLLEGE",
        "BLK_NO": "21",
        "ROAD_NAME": "PASIR RIS STREET 71",
        "BUILDING": "TAMPINES MERIDIAN JUNIOR COLLEGE",
        "ADDRESS": "21 PASIR RIS STREET 71 TAMPINES MERIDIAN JUNIOR COLLEGE SINGAPORE 518799",
        "POSTAL": "518799",
        "X": "39537.4294200996",
        "Y": "39813.7284696326",
        "LATITUDE": "1.37633346909682",
        "LONGITUDE": "103.936990723441",
        "LONGTITUDE": "103.936990723441"
    },
    {
        "SEARCHVAL": "VICTORIA JUNIOR COLLEGE",
        "BLK_NO": "20",
        "ROAD_NAME": "MARINE VISTA",
        "BUILDING": "VICTORIA JUNIOR COLLEGE",
        "ADDRESS": "20 MARINE VISTA VICTORIA JUNIOR COLLEGE SINGAPORE 449035",
        "POSTAL": "449035",
        "X": "37644.9179267231",
        "Y": "32114.1239029113",
        "LATITUDE": "1.30670174177479",
        "LONGITUDE": "103.919982704149",
        "LONGTITUDE": "103.919982704149"
    },
    {
        "SEARCHVAL": "YISHUN INNOVA JUNIOR COLLEGE",
        "BLK_NO": "3",
        "ROAD_NAME": "YISHUN RING ROAD",
        "BUILDING": "YISHUN INNOVA JUNIOR COLLEGE",
        "ADDRESS": "3 YISHUN RING ROAD YISHUN INNOVA JUNIOR COLLEGE SINGAPORE 768675",
        "POSTAL": "768675",
        "X": "27634.2199267391",
        "Y": "45113.7171314787",
        "LATITUDE": "1.42426692572335",
        "LONGITUDE": "103.83003171149",
        "LONGTITUDE": "103.83003171149"
    }
]
