[
    {
        "SEARCHVAL": "LIVING WATERS METHODIST CHURCH",
        "BLK_NO": "121",
        "ROAD_NAME": "DOVER ROAD",
        "BUILDING": "LIVING WATERS METHODIST CHURCH",
        "ADDRESS": "121 DOVER ROAD LIVING WATERS METHODIST CHURCH SINGAPORE 139650",
        "POSTAL": "139650",
        "X": "22081.8306045849",
        "Y": "31577.7673617657",
        "LATITUDE": "1.30185206138005",
        "LONGITUDE": "103.780141132126",
        "LONGTITUDE": "103.780141132126"
    },
    {
        "SEARCHVAL": "CATHOLIC HIGH SCHOOL",
        "BLK_NO": "9",
        "ROAD_NAME": "BISHAN STREET 22",
        "BUILDING": "CATHOLIC HIGH SCHOOL",
        "ADDRESS": "9 BISHAN STREET 22 CATHOLIC HIGH SCHOOL SINGAPORE 579767",
        "POSTAL": "579767",
        "X": "29286.0617525242",
        "Y": "37423.9135497604",
        "LATITUDE": "1.3547230747166",
        "LONGITUDE": "103.844874676599",
        "LONGTITUDE": "103.844874676599"
    },
    {
        "SEARCHVAL": "CHIJ SAINT NICHOLAS GIRLS' SCHOOL",
        "BLK_NO": "501",
        "ROAD_NAME": "ANG MO KIO STREET 13",
        "BUILDING": "CHIJ SAINT NICHOLAS GIRLS' SCHOOL",
        "ADDRESS": "501 ANG MO KIO STREET 13 CHIJ SAINT NICHOLAS GIRLS' SCHOOL SINGAPORE 569405",
        "POSTAL": "569405",
        "X": "28104.0195931299",
        "Y": "39497.6106162649",
        "LATITUDE": "1.37347687878916",
        "LONGITUDE": "103.834253269436",
        "LONGTITUDE": "103.834253269436"
    },
    {
        "SEARCHVAL": "DUNMAN HIGH SCHOOL",
        "BLK_NO": "10",
        "ROAD_NAME": "TANJONG RHU ROAD",
        "BUILDING": "DUNMAN HIGH SCHOOL",
        "ADDRESS": "10 TANJONG RHU ROAD DUNMAN HIGH SCHOOL SINGAPORE 436895",
        "POSTAL": "436895",
        "X": "33522.593402571",
        "Y": "31368.7836118564",
        "LATITUDE": "1.29996216014962",
        "LONGITUDE": "103.88294155989",
        "LONGTITUDE": "103.88294155989"
    },
    {
        "SEARCHVAL": "HWA CHONG INSTITUTION",
        "BLK_NO": "661",
        "ROAD_NAME": "BUKIT TIMAH ROAD",
        "BUILDING": "HWA CHONG INSTITUTION",
        "ADDRESS": "661 BUKIT TIMAH ROAD HWA CHONG INSTITUTION SINGAPORE 269734",
        "POSTAL": "269734",
        "X": "24926.8156149359",
        "Y": "34131.5293299966",
        "LATITUDE": "1.3249477928719",
        "LONGITUDE": "103.805704361472",
        "LONGTITUDE": "103.805704361472"
    },
    {
        "SEARCHVAL": "MARIS STELLA HIGH SCHOOL",
        "BLK_NO": "25",
        "ROAD_NAME": "MOUNT VERNON ROAD",
        "BUILDING": "MARIS STELLA HIGH SCHOOL",
        "ADDRESS": "25 MOUNT VERNON ROAD MARIS STELLA HIGH SCHOOL SINGAPORE 368051",
        "POSTAL": "368051",
        "X": "32956.1427672738",
        "Y": "35950.1756834127",
        "LATITUDE": "1.34139473351039",
        "LONGITUDE": "103.877852484979",
        "LONGTITUDE": "103.877852484979"
    },
    {
        "SEARCHVAL": "NATIONAL JUNIOR COLLEGE",
        "BLK_NO": "37",
        "ROAD_NAME": "HILLCREST ROAD",
        "BUILDING": "NATIONAL JUNIOR COLLEGE",
        "ADDRESS": "37 HILLCREST ROAD NATIONAL JUNIOR COLLEGE SINGAPORE 288913",
        "POSTAL": "288913",
        "X": "24749.4869699022",
        "Y": "34722.5671630222",
        "LATITUDE": "1.33029291072172",
        "LONGITUDE": "103.804110905425",
        "LONGTITUDE": "103.804110905425"
    },
    {
        "SEARCHVAL": "NUS HIGH SCHOOL OF MATHEMATICS AND SCIENCE",
        "BLK_NO": "20",
        "ROAD_NAME": "CLEMENTI AVENUE 1",
        "BUILDING": "NUS HIGH SCHOOL OF MATHEMATICS AND SCIENCE",
        "ADDRESS": "20 CLEMENTI AVENUE 1 NUS HIGH SCHOOL OF MATHEMATICS AND SCIENCE SINGAPORE 129957",
        "POSTAL": "129957",
        "X": "20882.5747099025",
        "Y": "32098.8705946617",
        "LATITUDE": "1.30656448055686",
        "LONGITUDE": "103.769365156929",
        "LONGTITUDE": "103.769365156929"
    },
    {
        "SEARCHVAL": "RAFFLES INSTITUTION",
        "BLK_NO": "1",
        "ROAD_NAME": "RAFFLES INSTITUTION LANE",
        "BUILDING": "RAFFLES INSTITUTION",
        "ADDRESS": "1 RAFFLES INSTITUTION LANE RAFFLES INSTITUTION SINGAPORE 575954",
        "POSTAL": "575954",
        "X": "29397.4034992037",
        "Y": "36480.122403916",
        "LATITUDE": "1.34618775847486",
        "LONGITUDE": "103.845875110532",
        "LONGTITUDE": "103.845875110532"
    },
    {
        "SEARCHVAL": "6 BOON LAY AVENUE SINGAPORE 649961",
        "BLK_NO": "6",
        "ROAD_NAME": "BOON LAY AVENUE",
        "BUILDING": "NIL",
        "ADDRESS": "6 BOON LAY AVENUE SINGAPORE 649961",
        "POSTAL": "649961",
        "X": "14074.6256253822",
        "Y": "36304.4497505389",
        "LATITUDE": "1.34459584223718",
        "LONGITUDE": "103.708190688947",
        "LONGTITUDE": "103.708190688947"
    },
    {
        "SEARCHVAL": "SCHOOL OF THE ARTS (SOTA)",
        "BLK_NO": "1",
        "ROAD_NAME": "ZUBIR SAID DRIVE",
        "BUILDING": "SCHOOL OF THE ARTS (SOTA)",
        "ADDRESS": "1 ZUBIR SAID DRIVE SCHOOL OF THE ARTS (SOTA) SINGAPORE 227968",
        "POSTAL": "227968",
        "X": "29710.4144953834",
        "Y": "31302.6820281129",
        "LATITUDE": "1.29936480411316",
        "LONGITUDE": "103.848687419363",
        "LONGTITUDE": "103.848687419363"
    },
    {
        "SEARCHVAL": "SINGAPORE SPORTS SCHOOL",
        "BLK_NO": "1",
        "ROAD_NAME": "CHAMPIONS WAY",
        "BUILDING": "SINGAPORE SPORTS SCHOOL",
        "ADDRESS": "1 CHAMPIONS WAY SINGAPORE SPORTS SCHOOL SINGAPORE 737913",
        "POSTAL": "737913",
        "X": "23117.4954931987",
        "Y": "45350.8892124798",
        "LATITUDE": "1.42641140556342",
        "LONGITUDE": "103.789444793951",
        "LONGTITUDE": "103.789444793951"
    },
    {
        "SEARCHVAL": "SAINT JOSEPH'S INSTITUTION",
        "BLK_NO": "38",
        "ROAD_NAME": "MALCOLM ROAD",
        "BUILDING": "SAINT JOSEPH'S INSTITUTION",
        "ADDRESS": "38 MALCOLM ROAD SAINT JOSEPH'S INSTITUTION SINGAPORE 308274",
        "POSTAL": "308274",
        "X": "27463.6263318341",
        "Y": "33988.3560766336",
        "LATITUDE": "1.32365313490152",
        "LONGITUDE": "103.828498974985",
        "LONGTITUDE": "103.828498974985"
    },
    {
        "SEARCHVAL": "TEMASEK JUNIOR COLLEGE",
        "BLK_NO": "22",
        "ROAD_NAME": "BEDOK SOUTH ROAD",
        "BUILDING": "TEMASEK JUNIOR COLLEGE",
        "ADDRESS": "22 BEDOK SOUTH ROAD TEMASEK JUNIOR COLLEGE SINGAPORE 469278",
        "POSTAL": "469278",
        "X": "39379.2891936116",
        "Y": "33417.989127459",
        "LATITUDE": "1.31849283027837",
        "LONGITUDE": "103.935567309385",
        "LONGTITUDE": "103.935567309385"
    }
]
