[
    {
        "SEARCHVAL": "ADMIRALTY SECONDARY SCHOOL",
        "BLK_NO": "31",
        "ROAD_NAME": "WOODLANDS CRESCENT",
        "BUILDING": "ADMIRALTY SECONDARY SCHOOL",
        "ADDRESS": "31 WOODLANDS CRESCENT ADMIRALTY SECONDARY SCHOOL SINGAPORE 737916",
        "POSTAL": "737916",
        "X": "24559.0472937012",
        "Y": "47504.7873554379",
        "LATITUDE": "1.44589068910993",
        "LONGITUDE": "103.802398196596",
        "LONGTITUDE": "103.802398196596"
    },
    {
        "SEARCHVAL": "AHMAD IBRAHIM SECONDARY SCHOOL",
        "BLK_NO": "751",
        "ROAD_NAME": "YISHUN AVENUE 7",
        "BUILDING": "AHMAD IBRAHIM SECONDARY SCHOOL",
        "ADDRESS": "751 YISHUN AVENUE 7 AHMAD IBRAHIM SECONDARY SCHOOL SINGAPORE 768928",
        "POSTAL": "768928",
        "X": "27599.3872889336",
        "Y": "46417.7087551262",
        "LATITUDE": "1.43605975368804",
        "LONGITUDE": "103.829718690077",
        "LONGTITUDE": "103.829718690077"
    },
    {
        "SEARCHVAL": "ANDERSON SECONDARY SCHOOL",
        "BLK_NO": "10",
        "ROAD_NAME": "ANG MO KIO STREET 53",
        "BUILDING": "ANDERSON SECONDARY SCHOOL",
        "ADDRESS": "10 ANG MO KIO STREET 53 ANDERSON SECONDARY SCHOOL SINGAPORE 569206",
        "POSTAL": "569206",
        "X": "30029.3897069497",
        "Y": "39593.0597646087",
        "LATITUDE": "1.37434001701177",
        "LONGITUDE": "103.851554107068",
        "LONGTITUDE": "103.851554107068"
    },
    {
        "SEARCHVAL": "ANG MO KIO SECONDARY SCHOOL",
        "BLK_NO": "6",
        "ROAD_NAME": "ANG MO KIO STREET 22",
        "BUILDING": "ANG MO KIO SECONDARY SCHOOL",
        "ADDRESS": "6 ANG MO KIO STREET 22 ANG MO KIO SECONDARY SCHOOL SINGAPORE 569362",
        "POSTAL": "569362",
        "X": "28983.3847605418",
        "Y": "38818.7070966065",
        "LATITUDE": "1.36733710171069",
        "LONGITUDE": "103.842154973672",
        "LONGTITUDE": "103.842154973672"
    },
    {
        "SEARCHVAL": "ALL SAINTS' CHURCH, SINGAPORE",
        "BLK_NO": "600",
        "ROAD_NAME": "UPPER CHANGI ROAD",
        "BUILDING": "ALL SAINTS' CHURCH, SINGAPORE",
        "ADDRESS": "600 UPPER CHANGI ROAD ALL SAINTS' CHURCH, SINGAPORE SINGAPORE 487012",
        "POSTAL": "487012",
        "X": "39993.0203263573",
        "Y": "34754.6941457652",
        "LATITUDE": "1.33058126205128",
        "LONGITUDE": "103.941082513081",
        "LONGTITUDE": "103.941082513081"
    },
    {
        "SEARCHVAL": "ANGLO-CHINESE SCHOOL (BARKER ROAD)",
        "BLK_NO": "60",
        "ROAD_NAME": "BARKER ROAD",
        "BUILDING": "ANGLO-CHINESE SCHOOL (BARKER ROAD)",
        "ADDRESS": "60 BARKER ROAD ANGLO-CHINESE SCHOOL (BARKER ROAD) SINGAPORE 309919",
        "POSTAL": "309919",
        "X": "28273.1184036592",
        "Y": "33542.0043816008",
        "LATITUDE": "1.31961649151328",
        "LONGITUDE": "103.835772689988",
        "LONGTITUDE": "103.835772689988"
    },
    {
        "SEARCHVAL": "BOYS' TOWN SINGAPORE",
        "BLK_NO": "622",
        "ROAD_NAME": "UPPER BUKIT TIMAH ROAD",
        "BUILDING": "BOYS' TOWN SINGAPORE",
        "ADDRESS": "622 UPPER BUKIT TIMAH ROAD BOYS' TOWN SINGAPORE SINGAPORE 678117",
        "POSTAL": "678117",
        "X": "20723.8791869851",
        "Y": "39020.6978526283",
        "LATITUDE": "1.36916295281535",
        "LONGITUDE": "103.767937546001",
        "LONGTITUDE": "103.767937546001"
    },
    {
        "SEARCHVAL": "BROADRICK SECONDARY SCHOOL",
        "BLK_NO": "61",
        "ROAD_NAME": "DAKOTA CRESCENT",
        "BUILDING": "BROADRICK SECONDARY SCHOOL",
        "ADDRESS": "61 DAKOTA CRESCENT BROADRICK SECONDARY SCHOOL SINGAPORE 399935",
        "POSTAL": "399935",
        "X": "33965.1104164785",
        "Y": "32152.5974159427",
        "LATITUDE": "1.30705061123433",
        "LONGITUDE": "103.886917922608",
        "LONGTITUDE": "103.886917922608"
    },
    {
        "SEARCHVAL": "ASSUMPTION PATHWAY SCHOOL",
        "BLK_NO": "30",
        "ROAD_NAME": "CASHEW ROAD",
        "BUILDING": "ASSUMPTION PATHWAY SCHOOL",
        "ADDRESS": "30 CASHEW ROAD ASSUMPTION PATHWAY SCHOOL SINGAPORE 679697",
        "POSTAL": "679697",
        "X": "20503.7068768945",
        "Y": "39076.8485643137",
        "LATITUDE": "1.3696707043227",
        "LONGITUDE": "103.765959130581",
        "LONGTITUDE": "103.765959130581"
    },
    {
        "SEARCHVAL": "BARTLEY SECONDARY SCHOOL",
        "BLK_NO": "10",
        "ROAD_NAME": "JALAN BUNGA RAMPAI",
        "BUILDING": "BARTLEY SECONDARY SCHOOL",
        "ADDRESS": "10 JALAN BUNGA RAMPAI BARTLEY SECONDARY SCHOOL SINGAPORE 538403",
        "POSTAL": "538403",
        "X": "33507.4424001053",
        "Y": "35790.8945052791",
        "LATITUDE": "1.33995415587811",
        "LONGITUDE": "103.882806211705",
        "LONGTITUDE": "103.882806211705"
    },
    {
        "SEARCHVAL": "BEATTY SECONDARY SCHOOL",
        "BLK_NO": "1",
        "ROAD_NAME": "TOA PAYOH NORTH",
        "BUILDING": "BEATTY SECONDARY SCHOOL",
        "ADDRESS": "1 TOA PAYOH NORTH BEATTY SECONDARY SCHOOL SINGAPORE 318990",
        "POSTAL": "318990",
        "X": "30110.2946048304",
        "Y": "35993.876840448",
        "LATITUDE": "1.341790284928",
        "LONGITUDE": "103.852280842345",
        "LONGTITUDE": "103.852280842345"
    },
    {
        "SEARCHVAL": "BEDOK GREEN SECONDARY SCHOOL",
        "BLK_NO": "360",
        "ROAD_NAME": "BEDOK NORTH AVENUE 3",
        "BUILDING": "BEDOK GREEN SECONDARY SCHOOL",
        "ADDRESS": "360 BEDOK NORTH AVENUE 3 BEDOK GREEN SECONDARY SCHOOL SINGAPORE 469722",
        "POSTAL": "469722",
        "X": "39319.2390878517",
        "Y": "35190.1334154308",
        "LATITUDE": "1.33451947288431",
        "LONGITUDE": "103.935028383346",
        "LONGTITUDE": "103.935028383346"
    },
    {
        "SEARCHVAL": "BEDOK SOUTH SECONDARY SCHOOL",
        "BLK_NO": "1",
        "ROAD_NAME": "JALAN LANGGAR BEDOK",
        "BUILDING": "BEDOK SOUTH SECONDARY SCHOOL",
        "ADDRESS": "1 JALAN LANGGAR BEDOK BEDOK SOUTH SECONDARY SCHOOL SINGAPORE 468585",
        "POSTAL": "468585",
        "X": "41095.5563319344",
        "Y": "34152.6950651146",
        "LATITUDE": "1.32513655159184",
        "LONGITUDE": "103.950989139261",
        "LONGTITUDE": "103.950989139261"
    },
    {
        "SEARCHVAL": "BEDOK VIEW SECONDARY SCHOOL",
        "BLK_NO": "6",
        "ROAD_NAME": "BEDOK SOUTH AVENUE 3",
        "BUILDING": "BEDOK VIEW SECONDARY SCHOOL",
        "ADDRESS": "6 BEDOK SOUTH AVENUE 3 BEDOK VIEW SECONDARY SCHOOL SINGAPORE 469293",
        "POSTAL": "469293",
        "X": "40292.8371452186",
        "Y": "34044.3485775683",
        "LATITUDE": "1.32415704029686",
        "LONGITUDE": "103.943776245024",
        "LONGTITUDE": "103.943776245024"
    },
    {
        "SEARCHVAL": "BENDEMEER SECONDARY SCHOOL",
        "BLK_NO": "1",
        "ROAD_NAME": "SAINT WILFRED ROAD",
        "BUILDING": "BENDEMEER SECONDARY SCHOOL",
        "ADDRESS": "1 SAINT WILFRED ROAD BENDEMEER SECONDARY SCHOOL SINGAPORE 327919",
        "POSTAL": "327919",
        "X": "31077.3568056701",
        "Y": "34094.3010115474",
        "LATITUDE": "1.32461111307996",
        "LONGITUDE": "103.860970284401",
        "LONGTITUDE": "103.860970284401"
    },
    {
        "SEARCHVAL": "BOON LAY SECONDARY SCHOOL",
        "BLK_NO": "11",
        "ROAD_NAME": "JURONG WEST STREET 65",
        "BUILDING": "BOON LAY SECONDARY SCHOOL",
        "ADDRESS": "11 JURONG WEST STREET 65 BOON LAY SECONDARY SCHOOL SINGAPORE 648354",
        "POSTAL": "648354",
        "X": "13373.5768683841",
        "Y": "36097.304205548",
        "LATITUDE": "1.34272216334333",
        "LONGITUDE": "103.701891453912",
        "LONGTITUDE": "103.701891453912"
    },
    {
        "SEARCHVAL": "BOWEN SECONDARY SCHOOL",
        "BLK_NO": "2",
        "ROAD_NAME": "LORONG NAPIRI",
        "BUILDING": "BOWEN SECONDARY SCHOOL",
        "ADDRESS": "2 LORONG NAPIRI BOWEN SECONDARY SCHOOL SINGAPORE 547529",
        "POSTAL": "547529",
        "X": "32934.6156324307",
        "Y": "39153.0014795549",
        "LATITUDE": "1.37035994436209",
        "LONGITUDE": "103.877659577677",
        "LONGTITUDE": "103.877659577677"
    },
    {
        "SEARCHVAL": "BUKIT BATOK SECONDARY SCHOOL",
        "BLK_NO": "50",
        "ROAD_NAME": "BUKIT BATOK WEST AVENUE 8",
        "BUILDING": "BUKIT BATOK SECONDARY SCHOOL",
        "ADDRESS": "50 BUKIT BATOK WEST AVENUE 8 BUKIT BATOK SECONDARY SCHOOL SINGAPORE 658962",
        "POSTAL": "658962",
        "X": "17711.9101901269",
        "Y": "36735.00712738",
        "LATITUDE": "1.34849111079052",
        "LONGITUDE": "103.74087370482",
        "LONGTITUDE": "103.74087370482"
    },
    {
        "SEARCHVAL": "BUKIT MERAH SECONDARY SCHOOL",
        "BLK_NO": "10",
        "ROAD_NAME": "LENGKOK BAHRU",
        "BUILDING": "BUKIT MERAH SECONDARY SCHOOL",
        "ADDRESS": "10 LENGKOK BAHRU BUKIT MERAH SECONDARY SCHOOL SINGAPORE 159050",
        "POSTAL": "159050",
        "X": "25787.5608570725",
        "Y": "29790.9091712814",
        "LATITUDE": "1.28569283064288",
        "LONGITUDE": "103.813438929393",
        "LONGTITUDE": "103.813438929393"
    },
    {
        "SEARCHVAL": "BUKIT PANJANG GOVERNMENT HIGH SCHOOL",
        "BLK_NO": "7",
        "ROAD_NAME": "CHOA CHU KANG AVENUE 4",
        "BUILDING": "BUKIT PANJANG GOVERNMENT HIGH SCHOOL",
        "ADDRESS": "7 CHOA CHU KANG AVENUE 4 BUKIT PANJANG GOVERNMENT HIGH SCHOOL SINGAPORE 689809",
        "POSTAL": "689809",
        "X": "17432.4458359294",
        "Y": "40467.0724023171",
        "LATITUDE": "1.38224243360043",
        "LONGITUDE": "103.738361221869",
        "LONGTITUDE": "103.738361221869"
    },
    {
        "SEARCHVAL": "BUKIT VIEW SECONDARY SCHOOL",
        "BLK_NO": "16",
        "ROAD_NAME": "BUKIT BATOK STREET 21",
        "BUILDING": "BUKIT VIEW SECONDARY SCHOOL",
        "ADDRESS": "16 BUKIT BATOK STREET 21 BUKIT VIEW SECONDARY SCHOOL SINGAPORE 659633",
        "POSTAL": "659633",
        "X": "18975.3516749162",
        "Y": "36429.990117576",
        "LATITUDE": "1.3457330554294",
        "LONGITUDE": "103.752226593984",
        "LONGTITUDE": "103.752226593984"
    },
    {
        "SEARCHVAL": "CANBERRA SECONDARY SCHOOL",
        "BLK_NO": "51",
        "ROAD_NAME": "SEMBAWANG DRIVE",
        "BUILDING": "CANBERRA SECONDARY SCHOOL",
        "ADDRESS": "51 SEMBAWANG DRIVE CANBERRA SECONDARY SCHOOL SINGAPORE 757699",
        "POSTAL": "757699",
        "X": "25872.8083025776",
        "Y": "48311.9895634912",
        "LATITUDE": "1.45319086315972",
        "LONGITUDE": "103.814203583818",
        "LONGTITUDE": "103.814203583818"
    },
    {
        "SEARCHVAL": "CEDAR GIRLS' SECONDARY SCHOOL",
        "BLK_NO": "1",
        "ROAD_NAME": "CEDAR AVENUE",
        "BUILDING": "CEDAR GIRLS' SECONDARY SCHOOL",
        "ADDRESS": "1 CEDAR AVENUE CEDAR GIRLS' SECONDARY SCHOOL SINGAPORE 349692",
        "POSTAL": "349692",
        "X": "32519.9675315833",
        "Y": "35105.7372267004",
        "LATITUDE": "1.33375800216334",
        "LONGITUDE": "103.873933064886",
        "LONGTITUDE": "103.873933064886"
    },
    {
        "SEARCHVAL": "CHANGKAT CHANGI SECONDARY SCHOOL",
        "BLK_NO": "23",
        "ROAD_NAME": "SIMEI STREET 3",
        "BUILDING": "CHANGKAT CHANGI SECONDARY SCHOOL",
        "ADDRESS": "23 SIMEI STREET 3 CHANGKAT CHANGI SECONDARY SCHOOL SINGAPORE 529894",
        "POSTAL": "529894",
        "X": "41346.5926023414",
        "Y": "35741.6438345015",
        "LATITUDE": "1.33950630072876",
        "LONGITUDE": "103.953245525564",
        "LONGTITUDE": "103.953245525564"
    },
    {
        "SEARCHVAL": "CHIJ KATONG CONVENT",
        "BLK_NO": "346",
        "ROAD_NAME": "MARINE TERRACE",
        "BUILDING": "CHIJ KATONG CONVENT",
        "ADDRESS": "346 MARINE TERRACE CHIJ KATONG CONVENT SINGAPORE 449150",
        "POSTAL": "449150",
        "X": "37329.0360122882",
        "Y": "32085.467477452",
        "LATITUDE": "1.30644268034894",
        "LONGITUDE": "103.917144350028",
        "LONGTITUDE": "103.917144350028"
    },
    {
        "SEARCHVAL": "CHIJ SECONDARY (TOA PAYOH)",
        "BLK_NO": "626",
        "ROAD_NAME": "LORONG 1 TOA PAYOH",
        "BUILDING": "CHIJ SECONDARY (TOA PAYOH)",
        "ADDRESS": "626 LORONG 1 TOA PAYOH CHIJ SECONDARY (TOA PAYOH) SINGAPORE 319764",
        "POSTAL": "319764",
        "X": "29107.6704288498",
        "Y": "34962.2641689572",
        "LATITUDE": "1.33246079948303",
        "LONGITUDE": "103.843271625083",
        "LONGTITUDE": "103.843271625083"
    },
    {
        "SEARCHVAL": "CHIJ SAINT JOSEPH'S CONVENT",
        "BLK_NO": "62",
        "ROAD_NAME": "SENGKANG EAST WAY",
        "BUILDING": "CHIJ SAINT JOSEPH'S CONVENT",
        "ADDRESS": "62 SENGKANG EAST WAY CHIJ SAINT JOSEPH'S CONVENT SINGAPORE 548595",
        "POSTAL": "548595",
        "X": "35695.0897989292",
        "Y": "41518.518049065",
        "LATITUDE": "1.39175222260369",
        "LONGITUDE": "103.902464991543",
        "LONGTITUDE": "103.902464991543"
    },
    {
        "SEARCHVAL": "CHUA CHU KANG SECONDARY SCHOOL",
        "BLK_NO": "3",
        "ROAD_NAME": "TECK WHYE CRESCENT",
        "BUILDING": "CHUA CHU KANG SECONDARY SCHOOL",
        "ADDRESS": "3 TECK WHYE CRESCENT CHUA CHU KANG SECONDARY SCHOOL SINGAPORE 688845",
        "POSTAL": "688845",
        "X": "18936.729485549",
        "Y": "40571.8260801956",
        "LATITUDE": "1.38319029263484",
        "LONGITUDE": "103.751878290333",
        "LONGTITUDE": "103.751878290333"
    },
    {
        "SEARCHVAL": "CHIJ SAINT THERESA'S CONVENT",
        "BLK_NO": "160",
        "ROAD_NAME": "LOWER DELTA ROAD",
        "BUILDING": "CHIJ SAINT THERESA'S CONVENT",
        "ADDRESS": "160 LOWER DELTA ROAD CHIJ SAINT THERESA'S CONVENT SINGAPORE 099138",
        "POSTAL": "099138",
        "X": "26789.3781491434",
        "Y": "28647.4426490944",
        "LATITUDE": "1.27535177510054",
        "LONGITUDE": "103.822440701642",
        "LONGTITUDE": "103.822440701642"
    },
    {
        "SEARCHVAL": "LIGHT OF CHRIST CHURCH WOODLANDS",
        "BLK_NO": "20",
        "ROAD_NAME": "WOODLANDS DRIVE 17",
        "BUILDING": "LIGHT OF CHRIST CHURCH WOODLANDS",
        "ADDRESS": "20 WOODLANDS DRIVE 17 LIGHT OF CHRIST CHURCH WOODLANDS SINGAPORE 737924",
        "POSTAL": "737924",
        "X": "23511.7159437109",
        "Y": "45365.0813252199",
        "LATITUDE": "1.42653981910601",
        "LONGITUDE": "103.792987223691",
        "LONGTITUDE": "103.792987223691"
    },
    {
        "SEARCHVAL": "EVERGREEN SECONDARY SCHOOL",
        "BLK_NO": "11",
        "ROAD_NAME": "WOODLANDS STREET 83",
        "BUILDING": "EVERGREEN SECONDARY SCHOOL",
        "ADDRESS": "11 WOODLANDS STREET 83 EVERGREEN SECONDARY SCHOOL SINGAPORE 738489",
        "POSTAL": "738489",
        "X": "23639.7815383626",
        "Y": "47018.3404796105",
        "LATITUDE": "1.44149131273737",
        "LONGITUDE": "103.794137756171",
        "LONGTITUDE": "103.794137756171"
    },
    {
        "SEARCHVAL": "CHUNG CHENG HIGH SCHOOL (MAIN)",
        "BLK_NO": "50",
        "ROAD_NAME": "GOODMAN ROAD",
        "BUILDING": "CHUNG CHENG HIGH SCHOOL (MAIN)",
        "ADDRESS": "50 GOODMAN ROAD CHUNG CHENG HIGH SCHOOL (MAIN) SINGAPORE 439012",
        "POSTAL": "439012",
        "X": "34492.1113962689",
        "Y": "31935.9858617261",
        "LATITUDE": "1.30509154753048",
        "LONGITUDE": "103.891653229373",
        "LONGTITUDE": "103.891653229373"
    },
    {
        "SEARCHVAL": "CHUNG CHENG HIGH SCHOOL (YISHUN)",
        "BLK_NO": "11",
        "ROAD_NAME": "YISHUN STREET 61",
        "BUILDING": "CHUNG CHENG HIGH SCHOOL (YISHUN)",
        "ADDRESS": "11 YISHUN STREET 61 CHUNG CHENG HIGH SCHOOL (YISHUN) SINGAPORE 768547",
        "POSTAL": "768547",
        "X": "28453.17758404",
        "Y": "44556.321072707",
        "LATITUDE": "1.41922603586175",
        "LONGITUDE": "103.837390782849",
        "LONGTITUDE": "103.837390782849"
    },
    {
        "SEARCHVAL": "CLEMENTI TOWN SECONDARY SCHOOL",
        "BLK_NO": "10",
        "ROAD_NAME": "CLEMENTI AVENUE 3",
        "BUILDING": "CLEMENTI TOWN SECONDARY SCHOOL",
        "ADDRESS": "10 CLEMENTI AVENUE 3 CLEMENTI TOWN SECONDARY SCHOOL SINGAPORE 129904",
        "POSTAL": "129904",
        "X": "20065.2210438633",
        "Y": "33091.2638894655",
        "LATITUDE": "1.31553912945073",
        "LONGITUDE": "103.762020598524",
        "LONGTITUDE": "103.762020598524"
    },
    {
        "SEARCHVAL": "COMMONWEALTH SECONDARY SCHOOL",
        "BLK_NO": "698",
        "ROAD_NAME": "WEST COAST ROAD",
        "BUILDING": "COMMONWEALTH SECONDARY SCHOOL",
        "ADDRESS": "698 WEST COAST ROAD COMMONWEALTH SECONDARY SCHOOL SINGAPORE 608784",
        "POSTAL": "608784",
        "X": "18241.9409345519",
        "Y": "33496.5605151355",
        "LATITUDE": "1.31920395934801",
        "LONGITUDE": "103.745637393049",
        "LONGTITUDE": "103.745637393049"
    },
    {
        "SEARCHVAL": "COMPASSVALE SECONDARY SCHOOL",
        "BLK_NO": "51",
        "ROAD_NAME": "COMPASSVALE CRESCENT",
        "BUILDING": "COMPASSVALE SECONDARY SCHOOL",
        "ADDRESS": "51 COMPASSVALE CRESCENT COMPASSVALE SECONDARY SCHOOL SINGAPORE 545083",
        "POSTAL": "545083",
        "X": "35403.746108626",
        "Y": "42003.7810229771",
        "LATITUDE": "1.39614083952009",
        "LONGITUDE": "103.899847164494",
        "LONGTITUDE": "103.899847164494"
    },
    {
        "SEARCHVAL": "CRESCENT GIRLS' SCHOOL",
        "BLK_NO": "357",
        "ROAD_NAME": "TANGLIN ROAD",
        "BUILDING": "CRESCENT GIRLS' SCHOOL",
        "ADDRESS": "357 TANGLIN ROAD CRESCENT GIRLS' SCHOOL SINGAPORE 247961",
        "POSTAL": "247961",
        "X": "26244.4775918219",
        "Y": "30634.2205088157",
        "LATITUDE": "1.29331947077104",
        "LONGITUDE": "103.817544461755",
        "LONGTITUDE": "103.817544461755"
    },
    {
        "SEARCHVAL": "CREST SECONDARY SCHOOL",
        "BLK_NO": "561",
        "ROAD_NAME": "JURONG EAST STREET 24",
        "BUILDING": "CREST SECONDARY SCHOOL",
        "ADDRESS": "561 JURONG EAST STREET 24 CREST SECONDARY SCHOOL SINGAPORE 609561",
        "POSTAL": "609561",
        "X": "17907.1336000822",
        "Y": "36141.0674422178",
        "LATITUDE": "1.3431198045076",
        "LONGITUDE": "103.742628105304",
        "LONGTITUDE": "103.742628105304"
    },
    {
        "SEARCHVAL": "DAMAI SECONDARY SCHOOL",
        "BLK_NO": "4800",
        "ROAD_NAME": "BEDOK RESERVOIR ROAD",
        "BUILDING": "DAMAI SECONDARY SCHOOL",
        "ADDRESS": "4800 BEDOK RESERVOIR ROAD DAMAI SECONDARY SCHOOL SINGAPORE 479229",
        "POSTAL": "479229",
        "X": "38435.9529452929",
        "Y": "35456.4196343422",
        "LATITUDE": "1.33692798510393",
        "LONGITUDE": "103.927091653438",
        "LONGTITUDE": "103.927091653438"
    },
    {
        "SEARCHVAL": "DEYI SECONDARY SCHOOL",
        "BLK_NO": "1",
        "ROAD_NAME": "ANG MO KIO STREET 42",
        "BUILDING": "DEYI SECONDARY SCHOOL",
        "ADDRESS": "1 ANG MO KIO STREET 42 DEYI SECONDARY SCHOOL SINGAPORE 569277",
        "POSTAL": "569277",
        "X": "30139.7572483057",
        "Y": "38670.5350554623",
        "LATITUDE": "1.36599702567717",
        "LONGITUDE": "103.852545772422",
        "LONGTITUDE": "103.852545772422"
    },
    {
        "SEARCHVAL": "DUNEARN SECONDARY SCHOOL",
        "BLK_NO": "21",
        "ROAD_NAME": "BUKIT BATOK WEST AVENUE 2",
        "BUILDING": "DUNEARN SECONDARY SCHOOL",
        "ADDRESS": "21 BUKIT BATOK WEST AVENUE 2 DUNEARN SECONDARY SCHOOL SINGAPORE 659204",
        "POSTAL": "659204",
        "X": "18140.1430463539",
        "Y": "38403.3358936273",
        "LATITUDE": "1.36357900792871",
        "LONGITUDE": "103.74472109107",
        "LONGTITUDE": "103.74472109107"
    },
    {
        "SEARCHVAL": "DUNMAN SECONDARY SCHOOL",
        "BLK_NO": "21",
        "ROAD_NAME": "TAMPINES STREET 45",
        "BUILDING": "DUNMAN SECONDARY SCHOOL",
        "ADDRESS": "21 TAMPINES STREET 45 DUNMAN SECONDARY SCHOOL SINGAPORE 529093",
        "POSTAL": "529093",
        "X": "41676.8242046405",
        "Y": "38079.9135282841",
        "LATITUDE": "1.36065258337022",
        "LONGITUDE": "103.956213906966",
        "LONGTITUDE": "103.956213906966"
    },
    {
        "SEARCHVAL": "EAST SPRING SECONDARY SCHOOL",
        "BLK_NO": "30",
        "ROAD_NAME": "TAMPINES STREET 34",
        "BUILDING": "EAST SPRING SECONDARY SCHOOL",
        "ADDRESS": "30 TAMPINES STREET 34 EAST SPRING SECONDARY SCHOOL SINGAPORE 529231",
        "POSTAL": "529231",
        "X": "42169.5015330398",
        "Y": "37590.3682097681",
        "LATITUDE": "1.35622508992581",
        "LONGITUDE": "103.960640700298",
        "LONGTITUDE": "103.960640700298"
    },
    {
        "SEARCHVAL": "EDGEFIELD SECONDARY SCHOOL",
        "BLK_NO": "36",
        "ROAD_NAME": "PUNGGOL FIELD",
        "BUILDING": "EDGEFIELD SECONDARY SCHOOL",
        "ADDRESS": "36 PUNGGOL FIELD EDGEFIELD SECONDARY SCHOOL SINGAPORE 828814",
        "POSTAL": "828814",
        "X": "35719.8105087345",
        "Y": "42496.0989190713",
        "LATITUDE": "1.40059309981824",
        "LONGITUDE": "103.902687385465",
        "LONGTITUDE": "103.902687385465"
    },
    {
        "SEARCHVAL": "FAIRFIELD METHODIST SCHOOL (SECONDARY)",
        "BLK_NO": "102",
        "ROAD_NAME": "DOVER ROAD",
        "BUILDING": "FAIRFIELD METHODIST SCHOOL (SECONDARY)",
        "ADDRESS": "102 DOVER ROAD FAIRFIELD METHODIST SCHOOL (SECONDARY) SINGAPORE 139649",
        "POSTAL": "139649",
        "X": "22522.3772030193",
        "Y": "31553.6179904211",
        "LATITUDE": "1.30163374395823",
        "LONGITUDE": "103.784099647149",
        "LONGTITUDE": "103.784099647149"
    },
    {
        "SEARCHVAL": "FAJAR SECONDARY SCHOOL",
        "BLK_NO": "31",
        "ROAD_NAME": "GANGSA ROAD",
        "BUILDING": "FAJAR SECONDARY SCHOOL",
        "ADDRESS": "31 GANGSA ROAD FAJAR SECONDARY SCHOOL SINGAPORE 678972",
        "POSTAL": "678972",
        "X": "20285.5773530258",
        "Y": "39732.4925308134",
        "LATITUDE": "1.375600053443",
        "LONGITUDE": "103.763998914082",
        "LONGTITUDE": "103.763998914082"
    },
    {
        "SEARCHVAL": "FUCHUN SECONDARY SCHOOL",
        "BLK_NO": "21",
        "ROAD_NAME": "WOODLANDS AVENUE 1",
        "BUILDING": "FUCHUN SECONDARY SCHOOL",
        "ADDRESS": "21 WOODLANDS AVENUE 1 FUCHUN SECONDARY SCHOOL SINGAPORE 739062",
        "POSTAL": "739062",
        "X": "21802.2213575486",
        "Y": "45825.6298548002",
        "LATITUDE": "1.43070452883799",
        "LONGITUDE": "103.777625748539",
        "LONGTITUDE": "103.777625748539"
    },
    {
        "SEARCHVAL": "FUHUA SECONDARY SCHOOL",
        "BLK_NO": "5",
        "ROAD_NAME": "JURONG WEST STREET 41",
        "BUILDING": "FUHUA SECONDARY SCHOOL",
        "ADDRESS": "5 JURONG WEST STREET 41 FUHUA SECONDARY SCHOOL SINGAPORE 649410",
        "POSTAL": "649410",
        "X": "16114.5930194063",
        "Y": "36571.750703603",
        "LATITUDE": "1.34701408913756",
        "LONGITUDE": "103.72652089832",
        "LONGTITUDE": "103.72652089832"
    },
    {
        "SEARCHVAL": "GAN ENG SENG SCHOOL",
        "BLK_NO": "1",
        "ROAD_NAME": "HENDERSON ROAD",
        "BUILDING": "GAN ENG SENG SCHOOL",
        "ADDRESS": "1 HENDERSON ROAD GAN ENG SENG SCHOOL SINGAPORE 159561",
        "POSTAL": "159561",
        "X": "26933.2813452026",
        "Y": "30164.4591011573",
        "LATITUDE": "1.28907114485773",
        "LONGITUDE": "103.823733673089",
        "LONGTITUDE": "103.823733673089"
    },
    {
        "SEARCHVAL": "GEYLANG METHODIST SCHOOL (SECONDARY)",
        "BLK_NO": "2",
        "ROAD_NAME": "GEYLANG EAST CENTRAL",
        "BUILDING": "GEYLANG METHODIST SCHOOL (SECONDARY)",
        "ADDRESS": "2 GEYLANG EAST CENTRAL GEYLANG METHODIST SCHOOL (SECONDARY) SINGAPORE 389705",
        "POSTAL": "389705",
        "X": "33491.3455231488",
        "Y": "33324.5040080417",
        "LATITUDE": "1.31764900474601",
        "LONGITUDE": "103.882661129303",
        "LONGTITUDE": "103.882661129303"
    },
    {
        "SEARCHVAL": "GREENDALE SECONDARY SCHOOL",
        "BLK_NO": "51",
        "ROAD_NAME": "EDGEDALE PLAINS",
        "BUILDING": "GREENDALE SECONDARY SCHOOL",
        "ADDRESS": "51 EDGEDALE PLAINS GREENDALE SECONDARY SCHOOL SINGAPORE 828866",
        "POSTAL": "828866",
        "X": "36722.8223570501",
        "Y": "42094.4224047884",
        "LATITUDE": "1.39696019936894",
        "LONGITUDE": "103.91170014084",
        "LONGTITUDE": "103.91170014084"
    },
    {
        "SEARCHVAL": "GREENRIDGE SECONDARY SCHOOL",
        "BLK_NO": "32",
        "ROAD_NAME": "BUKIT PANJANG RING ROAD",
        "BUILDING": "GREENRIDGE SECONDARY SCHOOL",
        "ADDRESS": "32 BUKIT PANJANG RING ROAD GREENRIDGE SECONDARY SCHOOL SINGAPORE 679938",
        "POSTAL": "679938",
        "X": "21379.5029344708",
        "Y": "40425.1360503398",
        "LATITUDE": "1.38186433722811",
        "LONGITUDE": "103.773828466913",
        "LONGTITUDE": "103.773828466913"
    },
    {
        "SEARCHVAL": "GUANGYANG SECONDARY SCHOOL",
        "BLK_NO": "8",
        "ROAD_NAME": "BISHAN STREET 12",
        "BUILDING": "GUANGYANG SECONDARY SCHOOL",
        "ADDRESS": "8 BISHAN STREET 12 GUANGYANG SECONDARY SCHOOL SINGAPORE 579807",
        "POSTAL": "579807",
        "X": "29879.7115914728",
        "Y": "36283.3906797953",
        "LATITUDE": "1.34440856042912",
        "LONGITUDE": "103.850208933626",
        "LONGTITUDE": "103.850208933626"
    },
    {
        "SEARCHVAL": "HAI SING CATHOLIC SCHOOL",
        "BLK_NO": "9",
        "ROAD_NAME": "PASIR RIS DRIVE 6",
        "BUILDING": "HAI SING CATHOLIC SCHOOL",
        "ADDRESS": "9 PASIR RIS DRIVE 6 HAI SING CATHOLIC SCHOOL SINGAPORE 519421",
        "POSTAL": "519421",
        "X": "41536.9732257053",
        "Y": "39594.1036770996",
        "LATITUDE": "1.37434641160381",
        "LONGITUDE": "103.954957944437",
        "LONGTITUDE": "103.954957944437"
    },
    {
        "SEARCHVAL": "HILLGROVE SECONDARY SCHOOL",
        "BLK_NO": "10",
        "ROAD_NAME": "BUKIT BATOK STREET 52",
        "BUILDING": "HILLGROVE SECONDARY SCHOOL",
        "ADDRESS": "10 BUKIT BATOK STREET 52 HILLGROVE SECONDARY SCHOOL SINGAPORE 659250",
        "POSTAL": "659250",
        "X": "19059.9452109011",
        "Y": "37204.3120635767",
        "LATITUDE": "1.35273576615912",
        "LONGITUDE": "103.752986488399",
        "LONGTITUDE": "103.752986488399"
    },
    {
        "SEARCHVAL": "HOLY INNOCENTS' HIGH SCHOOL",
        "BLK_NO": "1191",
        "ROAD_NAME": "UPPER SERANGOON ROAD",
        "BUILDING": "HOLY INNOCENTS' HIGH SCHOOL",
        "ADDRESS": "1191 UPPER SERANGOON ROAD HOLY INNOCENTS' HIGH SCHOOL SINGAPORE 534786",
        "POSTAL": "534786",
        "X": "35020.0627604807",
        "Y": "39284.0954767819",
        "LATITUDE": "1.37154508822261",
        "LONGITUDE": "103.896398814264",
        "LONGTITUDE": "103.896398814264"
    },
    {
        "SEARCHVAL": "HOUGANG SECONDARY SCHOOL",
        "BLK_NO": "2",
        "ROAD_NAME": "HOUGANG STREET 93",
        "BUILDING": "HOUGANG SECONDARY SCHOOL",
        "ADDRESS": "2 HOUGANG STREET 93 HOUGANG SECONDARY SCHOOL SINGAPORE 534256",
        "POSTAL": "534256",
        "X": "33477.0592164416",
        "Y": "39958.0252705514",
        "LATITUDE": "1.37764019332164",
        "LONGITUDE": "103.882533963338",
        "LONGTITUDE": "103.882533963338"
    },
    {
        "SEARCHVAL": "HUA YI SECONDARY SCHOOL",
        "BLK_NO": "60",
        "ROAD_NAME": "JURONG WEST STREET 42",
        "BUILDING": "HUA YI SECONDARY SCHOOL",
        "ADDRESS": "60 JURONG WEST STREET 42 HUA YI SECONDARY SCHOOL SINGAPORE 649371",
        "POSTAL": "649371",
        "X": "15592.8322145641",
        "Y": "37161.0913502462",
        "LATITUDE": "1.35234365488339",
        "LONGITUDE": "103.721832320169",
        "LONGTITUDE": "103.721832320169"
    },
    {
        "SEARCHVAL": "JUNYUAN SECONDARY SCHOOL",
        "BLK_NO": "11",
        "ROAD_NAME": "TAMPINES STREET 84",
        "BUILDING": "JUNYUAN SECONDARY SCHOOL",
        "ADDRESS": "11 TAMPINES STREET 84 JUNYUAN SECONDARY SCHOOL SINGAPORE 528933",
        "POSTAL": "528933",
        "X": "39192.0351621611",
        "Y": "37301.4129357934",
        "LATITUDE": "1.35361315263537",
        "LONGITUDE": "103.933886165824",
        "LONGTITUDE": "103.933886165824"
    },
    {
        "SEARCHVAL": "JURONG SECONDARY SCHOOL",
        "BLK_NO": "31",
        "ROAD_NAME": "YUAN CHING ROAD",
        "BUILDING": "JURONG SECONDARY SCHOOL",
        "ADDRESS": "31 YUAN CHING ROAD JURONG SECONDARY SCHOOL SINGAPORE 618652",
        "POSTAL": "618652",
        "X": "15828.7257759329",
        "Y": "34692.6761670429",
        "LATITUDE": "1.33002032220942",
        "LONGITUDE": "103.723952961648",
        "LONGTITUDE": "103.723952961648"
    },
    {
        "SEARCHVAL": "JURONG WEST SECONDARY SCHOOL",
        "BLK_NO": "61",
        "ROAD_NAME": "JURONG WEST STREET 65",
        "BUILDING": "JURONG WEST SECONDARY SCHOOL",
        "ADDRESS": "61 JURONG WEST STREET 65 JURONG WEST SECONDARY SCHOOL SINGAPORE 648348",
        "POSTAL": "648348",
        "X": "13396.6197330486",
        "Y": "35271.7690127064",
        "LATITUDE": "1.33525634688323",
        "LONGITUDE": "103.702098904443",
        "LONGTITUDE": "103.702098904443"
    },
    {
        "SEARCHVAL": "JURONGVILLE SECONDARY SCHOOL",
        "BLK_NO": "202",
        "ROAD_NAME": "JURONG EAST AVENUE 1",
        "BUILDING": "JURONGVILLE SECONDARY SCHOOL",
        "ADDRESS": "202 JURONG EAST AVENUE 1 JURONGVILLE SECONDARY SCHOOL SINGAPORE 609790",
        "POSTAL": "609790",
        "X": "16380.2394942129",
        "Y": "37044.3966198433",
        "LATITUDE": "1.35128862770284",
        "LONGITUDE": "103.728907710089",
        "LONGTITUDE": "103.728907710089"
    },
    {
        "SEARCHVAL": "JUYING SECONDARY SCHOOL",
        "BLK_NO": "33",
        "ROAD_NAME": "JURONG WEST STREET 91",
        "BUILDING": "JUYING SECONDARY SCHOOL",
        "ADDRESS": "33 JURONG WEST STREET 91 JUYING SECONDARY SCHOOL SINGAPORE 649038",
        "POSTAL": "649038",
        "X": "11750.8178531462",
        "Y": "35655.1627567839",
        "LATITUDE": "1.3387227734133",
        "LONGITUDE": "103.687310264575",
        "LONGTITUDE": "103.687310264575"
    },
    {
        "SEARCHVAL": "KENT RIDGE SECONDARY SCHOOL",
        "BLK_NO": "147",
        "ROAD_NAME": "WEST COAST ROAD",
        "BUILDING": "KENT RIDGE SECONDARY SCHOOL",
        "ADDRESS": "147 WEST COAST ROAD KENT RIDGE SECONDARY SCHOOL SINGAPORE 127368",
        "POSTAL": "127368",
        "X": "20384.4722389057",
        "Y": "31508.7733694967",
        "LATITUDE": "1.30122773426098",
        "LONGITUDE": "103.764889617566",
        "LONGTITUDE": "103.764889617566"
    },
    {
        "SEARCHVAL": "KRANJI SECONDARY SCHOOL",
        "BLK_NO": "61",
        "ROAD_NAME": "CHOA CHU KANG STREET 51",
        "BUILDING": "KRANJI SECONDARY SCHOOL",
        "ADDRESS": "61 CHOA CHU KANG STREET 51 KRANJI SECONDARY SCHOOL SINGAPORE 689333",
        "POSTAL": "689333",
        "X": "17747.3609606959",
        "Y": "41330.5036858637",
        "LATITUDE": "1.39005109871311",
        "LONGITUDE": "103.741190664845",
        "LONGTITUDE": "103.741190664845"
    },
    {
        "SEARCHVAL": "KUO CHUAN PRESBYTERIAN SECONDARY SCHOOL",
        "BLK_NO": "10",
        "ROAD_NAME": "BISHAN STREET 13",
        "BUILDING": "KUO CHUAN PRESBYTERIAN SECONDARY SCHOOL",
        "ADDRESS": "10 BISHAN STREET 13 KUO CHUAN PRESBYTERIAN SECONDARY SCHOOL SINGAPORE 579795",
        "POSTAL": "579795",
        "X": "30411.0903508216",
        "Y": "36920.6091322787",
        "LATITUDE": "1.35017129930314",
        "LONGITUDE": "103.854983746416",
        "LONGTITUDE": "103.854983746416"
    },
    {
        "SEARCHVAL": "LOYANG VIEW SECONDARY SCHOOL",
        "BLK_NO": "12",
        "ROAD_NAME": "PASIR RIS STREET 11",
        "BUILDING": "LOYANG VIEW SECONDARY SCHOOL",
        "ADDRESS": "12 PASIR RIS STREET 11 LOYANG VIEW SECONDARY SCHOOL SINGAPORE 519073",
        "POSTAL": "519073",
        "X": "41758.1067258865",
        "Y": "38735.8040275108",
        "LATITUDE": "1.36658417167238",
        "LONGITUDE": "103.956944585725",
        "LONGTITUDE": "103.956944585725"
    },
    {
        "SEARCHVAL": "MANJUSRI SECONDARY SCHOOL",
        "BLK_NO": "20",
        "ROAD_NAME": "UBI AVENUE 1",
        "BUILDING": "MANJUSRI SECONDARY SCHOOL",
        "ADDRESS": "20 UBI AVENUE 1 MANJUSRI SECONDARY SCHOOL SINGAPORE 408940",
        "POSTAL": "408940",
        "X": "35612.3792342106",
        "Y": "34410.6462380104",
        "LATITUDE": "1.32747123084846",
        "LONGITUDE": "103.901719963831",
        "LONGTITUDE": "103.901719963831"
    },
    {
        "SEARCHVAL": "MARSILING SECONDARY SCHOOL",
        "BLK_NO": "12",
        "ROAD_NAME": "MARSILING ROAD",
        "BUILDING": "MARSILING SECONDARY SCHOOL",
        "ADDRESS": "12 MARSILING ROAD MARSILING SECONDARY SCHOOL SINGAPORE 739110",
        "POSTAL": "739110",
        "X": "21622.2165990025",
        "Y": "46482.4188591223",
        "LATITUDE": "1.43664424769955",
        "LONGITUDE": "103.776008090454",
        "LONGTITUDE": "103.776008090454"
    },
    {
        "SEARCHVAL": "MAYFLOWER SECONDARY SCHOOL",
        "BLK_NO": "2",
        "ROAD_NAME": "ANG MO KIO STREET 21",
        "BUILDING": "MAYFLOWER SECONDARY SCHOOL",
        "ADDRESS": "2 ANG MO KIO STREET 21 MAYFLOWER SECONDARY SCHOOL SINGAPORE 569384",
        "POSTAL": "569384",
        "X": "28227.2664945051",
        "Y": "38922.1548925955",
        "LATITUDE": "1.36827266209722",
        "LONGITUDE": "103.835360726863",
        "LONGTITUDE": "103.835360726863"
    },
    {
        "SEARCHVAL": "MERIDIAN SECONDARY SCHOOL",
        "BLK_NO": "31",
        "ROAD_NAME": "PASIR RIS STREET 51",
        "BUILDING": "MERIDIAN SECONDARY SCHOOL",
        "ADDRESS": "31 PASIR RIS STREET 51 MERIDIAN SECONDARY SCHOOL SINGAPORE 518901",
        "POSTAL": "518901",
        "X": "40870.9016361358",
        "Y": "38809.035507232",
        "LATITUDE": "1.3672468492013",
        "LONGITUDE": "103.948972483629",
        "LONGTITUDE": "103.948972483629"
    },
    {
        "SEARCHVAL": "METHODIST GIRLS' SCHOOL",
        "BLK_NO": "11",
        "ROAD_NAME": "BLACKMORE DRIVE",
        "BUILDING": "METHODIST GIRLS' SCHOOL",
        "ADDRESS": "11 BLACKMORE DRIVE METHODIST GIRLS' SCHOOL SINGAPORE 599986",
        "POSTAL": "599986",
        "X": "22443.8042111406",
        "Y": "35016.191455096",
        "LATITUDE": "1.33294800935714",
        "LONGITUDE": "103.783393009829",
        "LONGTITUDE": "103.783393009829"
    },
    {
        "SEARCHVAL": "MONTFORT SECONDARY SCHOOL",
        "BLK_NO": "50",
        "ROAD_NAME": "HOUGANG AVENUE 8",
        "BUILDING": "MONTFORT SECONDARY SCHOOL",
        "ADDRESS": "50 HOUGANG AVENUE 8 MONTFORT SECONDARY SCHOOL SINGAPORE 538785",
        "POSTAL": "538785",
        "X": "34188.6869969647",
        "Y": "39551.2492366415",
        "LATITUDE": "1.37396131656912",
        "LONGITUDE": "103.888928372577",
        "LONGTITUDE": "103.888928372577"
    },
    {
        "SEARCHVAL": "NAN CHIAU HIGH SCHOOL",
        "BLK_NO": "20",
        "ROAD_NAME": "ANCHORVALE LINK",
        "BUILDING": "NAN CHIAU HIGH SCHOOL",
        "ADDRESS": "20 ANCHORVALE LINK NAN CHIAU HIGH SCHOOL SINGAPORE 545079",
        "POSTAL": "545079",
        "X": "34308.3992032008",
        "Y": "41191.5774543677",
        "LATITUDE": "1.38879582498399",
        "LONGITUDE": "103.890004423764",
        "LONGTITUDE": "103.890004423764"
    },
    {
        "SEARCHVAL": "NAN HUA HIGH SCHOOL",
        "BLK_NO": "41",
        "ROAD_NAME": "CLEMENTI AVENUE 1",
        "BUILDING": "NAN HUA HIGH SCHOOL",
        "ADDRESS": "41 CLEMENTI AVENUE 1 NAN HUA HIGH SCHOOL SINGAPORE 129956",
        "POSTAL": "129956",
        "X": "20793.1335141817",
        "Y": "32268.1425985936",
        "LATITUDE": "1.30809529518605",
        "LONGITUDE": "103.768561446725",
        "LONGTITUDE": "103.768561446725"
    },
    {
        "SEARCHVAL": "NANYANG GIRLS' HIGH SCHOOL",
        "BLK_NO": "2",
        "ROAD_NAME": "LINDEN DRIVE",
        "BUILDING": "NANYANG GIRLS' HIGH SCHOOL",
        "ADDRESS": "2 LINDEN DRIVE NANYANG GIRLS' HIGH SCHOOL SINGAPORE 288683",
        "POSTAL": "288683",
        "X": "24561.4160661073",
        "Y": "34754.6755309552",
        "LATITUDE": "1.33058326666479",
        "LONGITUDE": "103.802420979943",
        "LONGTITUDE": "103.802420979943"
    },
    {
        "SEARCHVAL": "NAVAL BASE SECONDARY SCHOOL",
        "BLK_NO": "901",
        "ROAD_NAME": "YISHUN RING ROAD",
        "BUILDING": "NAVAL BASE SECONDARY SCHOOL",
        "ADDRESS": "901 YISHUN RING ROAD NAVAL BASE SECONDARY SCHOOL SINGAPORE 768689",
        "POSTAL": "768689",
        "X": "27747.583393123",
        "Y": "44573.2144819219",
        "LATITUDE": "1.41937881620441",
        "LONGITUDE": "103.831050390247",
        "LONGTITUDE": "103.831050390247"
    },
    {
        "SEARCHVAL": "NEW TOWN SECONDARY SCHOOL",
        "BLK_NO": "1020",
        "ROAD_NAME": "DOVER ROAD",
        "BUILDING": "NEW TOWN SECONDARY SCHOOL",
        "ADDRESS": "1020 DOVER ROAD NEW TOWN SECONDARY SCHOOL SINGAPORE 139657",
        "POSTAL": "139657",
        "X": "21308.1010938296",
        "Y": "32453.9625329748",
        "LATITUDE": "1.30977590011357",
        "LONGITUDE": "103.77318863421",
        "LONGTITUDE": "103.77318863421"
    },
    {
        "SEARCHVAL": "NGEE ANN SECONDARY SCHOOL",
        "BLK_NO": "1",
        "ROAD_NAME": "TAMPINES STREET 32",
        "BUILDING": "NGEE ANN SECONDARY SCHOOL",
        "ADDRESS": "1 TAMPINES STREET 32 NGEE ANN SECONDARY SCHOOL SINGAPORE 529283",
        "POSTAL": "529283",
        "X": "41736.2154369308",
        "Y": "37396.8577860836",
        "LATITUDE": "1.35447525755806",
        "LONGITUDE": "103.956747262496",
        "LONGTITUDE": "103.956747262496"
    },
    {
        "SEARCHVAL": "NORTH VISTA SECONDARY SCHOOL",
        "BLK_NO": "11",
        "ROAD_NAME": "RIVERVALE LINK",
        "BUILDING": "NORTH VISTA SECONDARY SCHOOL",
        "ADDRESS": "11 RIVERVALE LINK NORTH VISTA SECONDARY SCHOOL SINGAPORE 545081",
        "POSTAL": "545081",
        "X": "35330.5266452944",
        "Y": "40344.0974890441",
        "LATITUDE": "1.381131285358",
        "LONGITUDE": "103.899188813886",
        "LONGTITUDE": "103.899188813886"
    },
    {
        "SEARCHVAL": "NORTHBROOKS SECONDARY SCHOOL",
        "BLK_NO": "585",
        "ROAD_NAME": "YISHUN RING ROAD",
        "BUILDING": "NORTHBROOKS SECONDARY SCHOOL",
        "ADDRESS": "585 YISHUN RING ROAD NORTHBROOKS SECONDARY SCHOOL SINGAPORE 768692",
        "POSTAL": "768692",
        "X": "29316.3687516721",
        "Y": "44731.7859666422",
        "LATITUDE": "1.42081285020652",
        "LONGITUDE": "103.845147332528",
        "LONGTITUDE": "103.845147332528"
    },
    {
        "SEARCHVAL": "NORTHLAND SECONDARY SCHOOL",
        "BLK_NO": "3",
        "ROAD_NAME": "YISHUN STREET 22",
        "BUILDING": "NORTHLAND SECONDARY SCHOOL",
        "ADDRESS": "3 YISHUN STREET 22 NORTHLAND SECONDARY SCHOOL SINGAPORE 768578",
        "POSTAL": "768578",
        "X": "28755.1906477995",
        "Y": "46389.1900489908",
        "LATITUDE": "1.43580183362637",
        "LONGITUDE": "103.840104687784",
        "LONGTITUDE": "103.840104687784"
    },
    {
        "SEARCHVAL": "NORTHLIGHT SCHOOL",
        "BLK_NO": "151",
        "ROAD_NAME": "TOWNER ROAD",
        "BUILDING": "NORTHLIGHT SCHOOL",
        "ADDRESS": "151 TOWNER ROAD NORTHLIGHT SCHOOL SINGAPORE 327830",
        "POSTAL": "327830",
        "X": "30497.4603147702",
        "Y": "33484.9283776525",
        "LATITUDE": "1.3191002158167",
        "LONGITUDE": "103.85575955353",
        "LONGTITUDE": "103.85575955353"
    },
    {
        "SEARCHVAL": "ORCHID PARK SECONDARY SCHOOL",
        "BLK_NO": "10",
        "ROAD_NAME": "YISHUN STREET 81",
        "BUILDING": "ORCHID PARK SECONDARY SCHOOL",
        "ADDRESS": "10 YISHUN STREET 81 ORCHID PARK SECONDARY SCHOOL SINGAPORE 768454",
        "POSTAL": "768454",
        "X": "28505.3110986585",
        "Y": "44124.4476742018",
        "LATITUDE": "1.41532032779634",
        "LONGITUDE": "103.837859241343",
        "LONGTITUDE": "103.837859241343"
    },
    {
        "SEARCHVAL": "OUTRAM SECONDARY SCHOOL",
        "BLK_NO": "3",
        "ROAD_NAME": "YORK HILL",
        "BUILDING": "OUTRAM SECONDARY SCHOOL",
        "ADDRESS": "3 YORK HILL OUTRAM SECONDARY SCHOOL SINGAPORE 168622",
        "POSTAL": "168622",
        "X": "28423.8747252515",
        "Y": "29881.6544933487",
        "LATITUDE": "1.28651357464735",
        "LONGITUDE": "103.837127264403",
        "LONGTITUDE": "103.837127264403"
    },
    {
        "SEARCHVAL": "PASIR RIS CREST SECONDARY SCHOOL",
        "BLK_NO": "11",
        "ROAD_NAME": "PASIR RIS STREET 41",
        "BUILDING": "PASIR RIS CREST SECONDARY SCHOOL",
        "ADDRESS": "11 PASIR RIS STREET 41 PASIR RIS CREST SECONDARY SCHOOL SINGAPORE 518934",
        "POSTAL": "518934",
        "X": "42067.8542885976",
        "Y": "39427.6259528883",
        "LATITUDE": "1.37284060102246",
        "LONGITUDE": "103.959728202919",
        "LONGTITUDE": "103.959728202919"
    },
    {
        "SEARCHVAL": "PASIR RIS SECONDARY SCHOOL",
        "BLK_NO": "390",
        "ROAD_NAME": "TAMPINES STREET 21",
        "BUILDING": "PASIR RIS SECONDARY SCHOOL",
        "ADDRESS": "390 TAMPINES STREET 21 PASIR RIS SECONDARY SCHOOL SINGAPORE 529400",
        "POSTAL": "529400",
        "X": "40869.8736143373",
        "Y": "37369.4000635836",
        "LATITUDE": "1.35422732653396",
        "LONGITUDE": "103.948962626204",
        "LONGTITUDE": "103.948962626204"
    },
    {
        "SEARCHVAL": "PAYA LEBAR METHODIST GIRLS' SCHOOL (SECONDARY)",
        "BLK_NO": "296",
        "ROAD_NAME": "LORONG AH SOO",
        "BUILDING": "PAYA LEBAR METHODIST GIRLS' SCHOOL (SECONDARY)",
        "ADDRESS": "296 LORONG AH SOO PAYA LEBAR METHODIST GIRLS' SCHOOL (SECONDARY) SINGAPORE 536742",
        "POSTAL": "536742",
        "X": "33764.9220583495",
        "Y": "37008.7061571106",
        "LATITUDE": "1.35096755912522",
        "LONGITUDE": "103.885120050588",
        "LONGTITUDE": "103.885120050588"
    },
    {
        "SEARCHVAL": "PEI HWA SECONDARY SCHOOL",
        "BLK_NO": "21",
        "ROAD_NAME": "FERNVALE LINK",
        "BUILDING": "PEI HWA SECONDARY SCHOOL",
        "ADDRESS": "21 FERNVALE LINK PEI HWA SECONDARY SCHOOL SINGAPORE 797702",
        "POSTAL": "797702",
        "X": "33023.8451944096",
        "Y": "41366.172537256",
        "LATITUDE": "1.39037504993234",
        "LONGITUDE": "103.878461745339",
        "LONGTITUDE": "103.878461745339"
    },
    {
        "SEARCHVAL": "PEICAI SECONDARY SCHOOL",
        "BLK_NO": "10",
        "ROAD_NAME": "SERANGOON AVENUE 4",
        "BUILDING": "PEICAI SECONDARY SCHOOL",
        "ADDRESS": "10 SERANGOON AVENUE 4 PEICAI SECONDARY SCHOOL SINGAPORE 556094",
        "POSTAL": "556094",
        "X": "32083.411887873",
        "Y": "37953.9001634661",
        "LATITUDE": "1.35951583222214",
        "LONGITUDE": "103.870010749055",
        "LONGTITUDE": "103.870010749055"
    },
    {
        "SEARCHVAL": "PEIRCE SECONDARY SCHOOL",
        "BLK_NO": "10",
        "ROAD_NAME": "SIN MING WALK",
        "BUILDING": "PEIRCE SECONDARY SCHOOL",
        "ADDRESS": "10 SIN MING WALK PEIRCE SECONDARY SCHOOL SINGAPORE 575566",
        "POSTAL": "575566",
        "X": "27654.7276661592",
        "Y": "38743.7738600355",
        "LATITUDE": "1.36665944653812",
        "LONGITUDE": "103.83021606804",
        "LONGTITUDE": "103.83021606804"
    },
    {
        "SEARCHVAL": "PING YI SECONDARY SCHOOL",
        "BLK_NO": "61",
        "ROAD_NAME": "CHAI CHEE STREET",
        "BUILDING": "PING YI SECONDARY SCHOOL",
        "ADDRESS": "61 CHAI CHEE STREET PING YI SECONDARY SCHOOL SINGAPORE 468980",
        "POSTAL": "468980",
        "X": "37724.7424694616",
        "Y": "34360.4560490176",
        "LATITUDE": "1.3270167275387",
        "LONGITUDE": "103.920700671987",
        "LONGTITUDE": "103.920700671987"
    },
    {
        "SEARCHVAL": "ANG MO KIO PRESBYTERIAN CHURCH",
        "BLK_NO": "5209",
        "ROAD_NAME": "ANG MO KIO AVENUE 6",
        "BUILDING": "ANG MO KIO PRESBYTERIAN CHURCH",
        "ADDRESS": "5209 ANG MO KIO AVENUE 6 ANG MO KIO PRESBYTERIAN CHURCH SINGAPORE 569845",
        "POSTAL": "569845",
        "X": "29008.7518431395",
        "Y": "40412.8958896007",
        "LATITUDE": "1.38175437421949",
        "LONGITUDE": "103.842382968794",
        "LONGTITUDE": "103.842382968794"
    },
    {
        "SEARCHVAL": "PUNGGOL SECONDARY SCHOOL",
        "BLK_NO": "51",
        "ROAD_NAME": "EDGEFIELD PLAINS",
        "BUILDING": "PUNGGOL SECONDARY SCHOOL",
        "ADDRESS": "51 EDGEFIELD PLAINS PUNGGOL SECONDARY SCHOOL SINGAPORE 828870",
        "POSTAL": "828870",
        "X": "36446.0969829671",
        "Y": "42658.0347204488",
        "LATITUDE": "1.40205738421399",
        "LONGITUDE": "103.909213706482",
        "LONGTITUDE": "103.909213706482"
    },
    {
        "SEARCHVAL": "QUEENSTOWN SECONDARY SCHOOL",
        "BLK_NO": "1",
        "ROAD_NAME": "STRATHMORE ROAD",
        "BUILDING": "QUEENSTOWN SECONDARY SCHOOL",
        "ADDRESS": "1 STRATHMORE ROAD QUEENSTOWN SECONDARY SCHOOL SINGAPORE 148800",
        "POSTAL": "148800",
        "X": "25759.9730125098",
        "Y": "30656.5376077667",
        "LATITUDE": "1.29352126774652",
        "LONGITUDE": "103.813190980055",
        "LONGTITUDE": "103.813190980055"
    },
    {
        "SEARCHVAL": "QUEENSWAY SECONDARY SCHOOL",
        "BLK_NO": "2A",
        "ROAD_NAME": "MARGARET DRIVE",
        "BUILDING": "QUEENSWAY SECONDARY SCHOOL",
        "ADDRESS": "2A MARGARET DRIVE QUEENSWAY SECONDARY SCHOOL SINGAPORE 149295",
        "POSTAL": "149295",
        "X": "24537.5928928228",
        "Y": "31397.561654076",
        "LATITUDE": "1.30022271592188",
        "LONGITUDE": "103.802207291625",
        "LONGTITUDE": "103.802207291625"
    },
    {
        "SEARCHVAL": "RAFFLES GIRLS' SCHOOL (SECONDARY)",
        "BLK_NO": "2",
        "ROAD_NAME": "BRADDELL RISE",
        "BUILDING": "RAFFLES GIRLS' SCHOOL (SECONDARY)",
        "ADDRESS": "2 BRADDELL RISE RAFFLES GIRLS' SCHOOL (SECONDARY) SINGAPORE 318871",
        "POSTAL": "318871",
        "X": "29092.3551620366",
        "Y": "36036.388495991",
        "LATITUDE": "1.34217479932295",
        "LONGITUDE": "103.84313404727",
        "LONGTITUDE": "103.84313404727"
    },
    {
        "SEARCHVAL": "REGENT SECONDARY SCHOOL",
        "BLK_NO": "50",
        "ROAD_NAME": "CHOA CHU KANG NORTH 5",
        "BUILDING": "REGENT SECONDARY SCHOOL",
        "ADDRESS": "50 CHOA CHU KANG NORTH 5 REGENT SECONDARY SCHOOL SINGAPORE 689621",
        "POSTAL": "689621",
        "X": "18842.8552409327",
        "Y": "41687.3977799285",
        "LATITUDE": "1.39327908335682",
        "LONGITUDE": "103.751034411529",
        "LONGTITUDE": "103.751034411529"
    },
    {
        "SEARCHVAL": "RIVERSIDE SECONDARY SCHOOL",
        "BLK_NO": "3",
        "ROAD_NAME": "WOODLANDS STREET 81",
        "BUILDING": "RIVERSIDE SECONDARY SCHOOL",
        "ADDRESS": "3 WOODLANDS STREET 81 RIVERSIDE SECONDARY SCHOOL SINGAPORE 738524",
        "POSTAL": "738524",
        "X": "22991.0453311065",
        "Y": "46975.256819712",
        "LATITUDE": "1.44110157139127",
        "LONGITUDE": "103.78830823641",
        "LONGTITUDE": "103.78830823641"
    },
    {
        "SEARCHVAL": "SCHOOL OF SCIENCE AND TECHNOLOGY, SINGAPORE",
        "BLK_NO": "1",
        "ROAD_NAME": "TECHNOLOGY DRIVE",
        "BUILDING": "SCHOOL OF SCIENCE AND TECHNOLOGY, SINGAPORE",
        "ADDRESS": "1 TECHNOLOGY DRIVE SCHOOL OF SCIENCE AND TECHNOLOGY, SINGAPORE SINGAPORE 138572",
        "POSTAL": "138572",
        "X": "21399.6898937989",
        "Y": "32802.5152550135",
        "LATITUDE": "1.31292810600277",
        "LONGITUDE": "103.774011529322",
        "LONGTITUDE": "103.774011529322"
    },
    {
        "SEARCHVAL": "SEMBAWANG SECONDARY SCHOOL",
        "BLK_NO": "30",
        "ROAD_NAME": "SEMBAWANG CRESCENT",
        "BUILDING": "SEMBAWANG SECONDARY SCHOOL",
        "ADDRESS": "30 SEMBAWANG CRESCENT SEMBAWANG SECONDARY SCHOOL SINGAPORE 757704",
        "POSTAL": "757704",
        "X": "26166.5553010562",
        "Y": "47441.1161091775",
        "LATITUDE": "1.44531502131387",
        "LONGITUDE": "103.816843258118",
        "LONGTITUDE": "103.816843258118"
    },
    {
        "SEARCHVAL": "SENG KANG SECONDARY SCHOOL",
        "BLK_NO": "10",
        "ROAD_NAME": "COMPASSVALE LANE",
        "BUILDING": "SENG KANG SECONDARY SCHOOL",
        "ADDRESS": "10 COMPASSVALE LANE SENG KANG SECONDARY SCHOOL SINGAPORE 545090",
        "POSTAL": "545090",
        "X": "35238.8340261402",
        "Y": "40948.4476958644",
        "LATITUDE": "1.38659683143747",
        "LONGITUDE": "103.898365036709",
        "LONGTITUDE": "103.898365036709"
    },
    {
        "SEARCHVAL": "SERANGOON GARDEN SECONDARY SCHOOL",
        "BLK_NO": "21",
        "ROAD_NAME": "SERANGOON NORTH AVENUE 1",
        "BUILDING": "SERANGOON GARDEN SECONDARY SCHOOL",
        "ADDRESS": "21 SERANGOON NORTH AVENUE 1 SERANGOON GARDEN SECONDARY SCHOOL SINGAPORE 555889",
        "POSTAL": "555889",
        "X": "32000.9924708903",
        "Y": "39038.6248832196",
        "LATITUDE": "1.36932570490947",
        "LONGITUDE": "103.869270301476",
        "LONGTITUDE": "103.869270301476"
    },
    {
        "SEARCHVAL": "SERANGOON SECONDARY SCHOOL",
        "BLK_NO": "11",
        "ROAD_NAME": "UPPER SERANGOON VIEW",
        "BUILDING": "SERANGOON SECONDARY SCHOOL",
        "ADDRESS": "11 UPPER SERANGOON VIEW SERANGOON SECONDARY SCHOOL SINGAPORE 534237",
        "POSTAL": "534237",
        "X": "35658.8371386668",
        "Y": "39628.0344803315",
        "LATITUDE": "1.37465538827443",
        "LONGITUDE": "103.902138740699",
        "LONGTITUDE": "103.902138740699"
    },
    {
        "SEARCHVAL": "SINGAPORE CHINESE GIRLS' SCHOOL",
        "BLK_NO": "190",
        "ROAD_NAME": "DUNEARN ROAD",
        "BUILDING": "SINGAPORE CHINESE GIRLS' SCHOOL",
        "ADDRESS": "190 DUNEARN ROAD SINGAPORE CHINESE GIRLS' SCHOOL SINGAPORE 309437",
        "POSTAL": "309437",
        "X": "27426.4538880838",
        "Y": "33654.5249451734",
        "LATITUDE": "1.3206340835184",
        "LONGITUDE": "103.828164966953",
        "LONGTITUDE": "103.828164966953"
    },
    {
        "SEARCHVAL": "SPECTRA SECONDARY SCHOOL",
        "BLK_NO": "1",
        "ROAD_NAME": "WOODLANDS DRIVE 64",
        "BUILDING": "SPECTRA SECONDARY SCHOOL",
        "ADDRESS": "1 WOODLANDS DRIVE 64 SPECTRA SECONDARY SCHOOL SINGAPORE 737758",
        "POSTAL": "737758",
        "X": "24748.4707526173",
        "Y": "46525.8443958983",
        "LATITUDE": "1.43703750789961",
        "LONGITUDE": "103.804100467487",
        "LONGTITUDE": "103.804100467487"
    },
    {
        "SEARCHVAL": "SPRINGFIELD SECONDARY SCHOOL",
        "BLK_NO": "30",
        "ROAD_NAME": "TAMPINES AVENUE 8",
        "BUILDING": "SPRINGFIELD SECONDARY SCHOOL",
        "ADDRESS": "30 TAMPINES AVENUE 8 SPRINGFIELD SECONDARY SCHOOL SINGAPORE 529593",
        "POSTAL": "529593",
        "X": "38799.0137778232",
        "Y": "36854.6606742647",
        "LATITUDE": "1.34957303471476",
        "LONGITUDE": "103.930354460693",
        "LONGTITUDE": "103.930354460693"
    },
    {
        "SEARCHVAL": "SAINT GABRIEL'S SECONDARY SCHOOL",
        "BLK_NO": "24",
        "ROAD_NAME": "SERANGOON AVENUE 1",
        "BUILDING": "SAINT GABRIEL'S SECONDARY SCHOOL",
        "ADDRESS": "24 SERANGOON AVENUE 1 SAINT GABRIEL'S SECONDARY SCHOOL SINGAPORE 556140",
        "POSTAL": "556140",
        "X": "32760.4506575912",
        "Y": "36513.3583147768",
        "LATITUDE": "1.34648798732177",
        "LONGITUDE": "103.876094163287",
        "LONGTITUDE": "103.876094163287"
    },
    {
        "SEARCHVAL": "SAINT ANDREW'S SECONDARY SCHOOL",
        "BLK_NO": "15",
        "ROAD_NAME": "FRANCIS THOMAS DRIVE",
        "BUILDING": "SAINT ANDREW'S SECONDARY SCHOOL",
        "ADDRESS": "15 FRANCIS THOMAS DRIVE SAINT ANDREW'S SECONDARY SCHOOL SINGAPORE 359342",
        "POSTAL": "359342",
        "X": "31664.831310045",
        "Y": "34766.8795819897",
        "LATITUDE": "1.33069360968075",
        "LONGITUDE": "103.866249138562",
        "LONGTITUDE": "103.866249138562"
    },
    {
        "SEARCHVAL": "SAINT ANTHONY'S CANOSSIAN SECONDARY SCHOOL",
        "BLK_NO": "1600",
        "ROAD_NAME": "BEDOK NORTH AVENUE 4",
        "BUILDING": "SAINT ANTHONY'S CANOSSIAN SECONDARY SCHOOL",
        "ADDRESS": "1600 BEDOK NORTH AVENUE 4 SAINT ANTHONY'S CANOSSIAN SECONDARY SCHOOL SINGAPORE 469700",
        "POSTAL": "469700",
        "X": "40092.566337103",
        "Y": "35206.0519231595",
        "LATITUDE": "1.33466313498855",
        "LONGITUDE": "103.941977166932",
        "LONGTITUDE": "103.941977166932"
    },
    {
        "SEARCHVAL": "SAINT HILDA'S SECONDARY SCHOOL",
        "BLK_NO": "2",
        "ROAD_NAME": "TAMPINES STREET 82",
        "BUILDING": "SAINT HILDA'S SECONDARY SCHOOL",
        "ADDRESS": "2 TAMPINES STREET 82 SAINT HILDA'S SECONDARY SCHOOL SINGAPORE 528986",
        "POSTAL": "528986",
        "X": "39606.2556369342",
        "Y": "36873.0704489276",
        "LATITUDE": "1.34973922385379",
        "LONGITUDE": "103.937608032148",
        "LONGTITUDE": "103.937608032148"
    },
    {
        "SEARCHVAL": "SAINT JOHN'S CHAPEL",
        "BLK_NO": "111",
        "ROAD_NAME": "FARRER ROAD",
        "BUILDING": "SAINT JOHN'S CHAPEL",
        "ADDRESS": "111 FARRER ROAD SAINT JOHN'S CHAPEL SINGAPORE 259240",
        "POSTAL": "259240",
        "X": "25360.6020710841",
        "Y": "33559.5041493345",
        "LATITUDE": "1.31977464050584",
        "LONGITUDE": "103.809602215402",
        "LONGTITUDE": "103.809602215402"
    },
    {
        "SEARCHVAL": "SAINT PATRICK'S SCHOOL",
        "BLK_NO": "490",
        "ROAD_NAME": "EAST COAST ROAD",
        "BUILDING": "SAINT PATRICK'S SCHOOL",
        "ADDRESS": "490 EAST COAST ROAD SAINT PATRICK'S SCHOOL SINGAPORE 429058",
        "POSTAL": "429058",
        "X": "37383.9909570096",
        "Y": "32244.7789235692",
        "LATITUDE": "1.30788341871801",
        "LONGITUDE": "103.917638193713",
        "LONGTITUDE": "103.917638193713"
    },
    {
        "SEARCHVAL": "SWISS COTTAGE SECONDARY SCHOOL",
        "BLK_NO": "3",
        "ROAD_NAME": "BUKIT BATOK STREET 34",
        "BUILDING": "SWISS COTTAGE SECONDARY SCHOOL",
        "ADDRESS": "3 BUKIT BATOK STREET 34 SWISS COTTAGE SECONDARY SCHOOL SINGAPORE 659322",
        "POSTAL": "659322",
        "X": "18771.7135838792",
        "Y": "38529.1941047609",
        "LATITUDE": "1.36471742697475",
        "LONGITUDE": "103.750396136688",
        "LONGTITUDE": "103.750396136688"
    },
    {
        "SEARCHVAL": "TAMPINES SECONDARY SCHOOL",
        "BLK_NO": "252",
        "ROAD_NAME": "TAMPINES STREET 12",
        "BUILDING": "TAMPINES SECONDARY SCHOOL",
        "ADDRESS": "252 TAMPINES STREET 12 TAMPINES SECONDARY SCHOOL SINGAPORE 529427",
        "POSTAL": "529427",
        "X": "40346.96177861",
        "Y": "36820.2178275529",
        "LATITUDE": "1.34926094811197",
        "LONGITUDE": "103.944263709507",
        "LONGTITUDE": "103.944263709507"
    },
    {
        "SEARCHVAL": "TANGLIN SECONDARY SCHOOL",
        "BLK_NO": "301",
        "ROAD_NAME": "WEST COAST ROAD",
        "BUILDING": "TANGLIN SECONDARY SCHOOL",
        "ADDRESS": "301 WEST COAST ROAD TANGLIN SECONDARY SCHOOL SINGAPORE 127391",
        "POSTAL": "127391",
        "X": "19635.3712416776",
        "Y": "32445.8021634929",
        "LATITUDE": "1.30970169234123",
        "LONGITUDE": "103.758158358303",
        "LONGTITUDE": "103.758158358303"
    },
    {
        "SEARCHVAL": "TANJANG KATONG GIRLS SCHOOL (U/C)",
        "BLK_NO": "20",
        "ROAD_NAME": "DUNMAN LANE",
        "BUILDING": "TANJANG KATONG GIRLS SCHOOL (U/C)",
        "ADDRESS": "20 DUNMAN LANE TANJANG KATONG GIRLS SCHOOL (U/C) SINGAPORE 439272",
        "POSTAL": "439272",
        "X": "34987.7913389215",
        "Y": "32209.2362594008",
        "LATITUDE": "1.3075626184394",
        "LONGITUDE": "103.896107204542",
        "LONGTITUDE": "103.896107204542"
    },
    {
        "SEARCHVAL": "TANJONG KATONG SECONDARY SCHOOL",
        "BLK_NO": "130",
        "ROAD_NAME": "HAIG ROAD",
        "BUILDING": "TANJONG KATONG SECONDARY SCHOOL",
        "ADDRESS": "130 HAIG ROAD TANJONG KATONG SECONDARY SCHOOL SINGAPORE 438796",
        "POSTAL": "438796",
        "X": "35112.2101863576",
        "Y": "32338.8930419572",
        "LATITUDE": "1.30873515955341",
        "LONGITUDE": "103.897225196199",
        "LONGTITUDE": "103.897225196199"
    },
    {
        "SEARCHVAL": "TECK WHYE SECONDARY SCHOOL",
        "BLK_NO": "31",
        "ROAD_NAME": "TECK WHYE CRESCENT",
        "BUILDING": "TECK WHYE SECONDARY SCHOOL",
        "ADDRESS": "31 TECK WHYE CRESCENT TECK WHYE SECONDARY SCHOOL SINGAPORE 688848",
        "POSTAL": "688848",
        "X": "19295.6301955935",
        "Y": "40587.7294842005",
        "LATITUDE": "1.38333422637073",
        "LONGITUDE": "103.75510327583",
        "LONGTITUDE": "103.75510327583"
    },
    {
        "SEARCHVAL": "TEMASEK SECONDARY SCHOOL",
        "BLK_NO": "600",
        "ROAD_NAME": "UPPER EAST COAST ROAD",
        "BUILDING": "TEMASEK SECONDARY SCHOOL",
        "ADDRESS": "600 UPPER EAST COAST ROAD TEMASEK SECONDARY SCHOOL SINGAPORE 465561",
        "POSTAL": "465561",
        "X": "40714.4313851139",
        "Y": "33133.1948234718",
        "LATITUDE": "1.31591673150616",
        "LONGITUDE": "103.947564112022",
        "LONGTITUDE": "103.947564112022"
    },
    {
        "SEARCHVAL": "UNITY SECONDARY SCHOOL",
        "BLK_NO": "20",
        "ROAD_NAME": "CHOA CHU KANG STREET 62",
        "BUILDING": "UNITY SECONDARY SCHOOL",
        "ADDRESS": "20 CHOA CHU KANG STREET 62 UNITY SECONDARY SCHOOL SINGAPORE 689143",
        "POSTAL": "689143",
        "X": "18284.9462911766",
        "Y": "42432.2689475045",
        "LATITUDE": "1.40001524119441",
        "LONGITUDE": "103.74602091483",
        "LONGTITUDE": "103.74602091483"
    },
    {
        "SEARCHVAL": "VICTORIA SCHOOL",
        "BLK_NO": "2",
        "ROAD_NAME": "SIGLAP LINK",
        "BUILDING": "VICTORIA SCHOOL",
        "ADDRESS": "2 SIGLAP LINK VICTORIA SCHOOL SINGAPORE 448880",
        "POSTAL": "448880",
        "X": "38535.0431807386",
        "Y": "32336.5539019071",
        "LATITUDE": "1.3087130270751",
        "LONGITUDE": "103.927980966639",
        "LONGTITUDE": "103.927980966639"
    },
    {
        "SEARCHVAL": "WEST SPRING SECONDARY SCHOOL",
        "BLK_NO": "61",
        "ROAD_NAME": "SENJA ROAD",
        "BUILDING": "WEST SPRING SECONDARY SCHOOL",
        "ADDRESS": "61 SENJA ROAD WEST SPRING SECONDARY SCHOOL SINGAPORE 677737",
        "POSTAL": "677737",
        "X": "19854.9273258867",
        "Y": "41084.0393943992",
        "LATITUDE": "1.38782283303782",
        "LONGITUDE": "103.760128840155",
        "LONGTITUDE": "103.760128840155"
    },
    {
        "SEARCHVAL": "WESTWOOD SECONDARY SCHOOL",
        "BLK_NO": "11",
        "ROAD_NAME": "JURONG WEST STREET 25",
        "BUILDING": "WESTWOOD SECONDARY SCHOOL",
        "ADDRESS": "11 JURONG WEST STREET 25 WESTWOOD SECONDARY SCHOOL SINGAPORE 648350",
        "POSTAL": "648350",
        "X": "13360.360080882",
        "Y": "37315.2708597258",
        "LATITUDE": "1.35373698510994",
        "LONGITUDE": "103.701772102139",
        "LONGTITUDE": "103.701772102139"
    },
    {
        "SEARCHVAL": "WHITLEY SECONDARY SCHOOL",
        "BLK_NO": "30",
        "ROAD_NAME": "BISHAN STREET 24",
        "BUILDING": "WHITLEY SECONDARY SCHOOL",
        "ADDRESS": "30 BISHAN STREET 24 WHITLEY SECONDARY SCHOOL SINGAPORE 579747",
        "POSTAL": "579747",
        "X": "29027.6163034551",
        "Y": "37460.2926999275",
        "LATITUDE": "1.35505208480649",
        "LONGITUDE": "103.842552378136",
        "LONGTITUDE": "103.842552378136"
    },
    {
        "SEARCHVAL": "WOODGROVE SECONDARY SCHOOL",
        "BLK_NO": "3",
        "ROAD_NAME": "WOODLANDS AVENUE 6",
        "BUILDING": "WOODGROVE SECONDARY SCHOOL",
        "ADDRESS": "3 WOODLANDS AVENUE 6 WOODGROVE SECONDARY SCHOOL SINGAPORE 738990",
        "POSTAL": "738990",
        "X": "23852.2922348054",
        "Y": "45561.7290254179",
        "LATITUDE": "1.42831828137013",
        "LONGITUDE": "103.79604758539",
        "LONGTITUDE": "103.79604758539"
    },
    {
        "SEARCHVAL": "WOODLANDS RING SECONDARY SCHOOL",
        "BLK_NO": "10",
        "ROAD_NAME": "WOODLANDS RING ROAD",
        "BUILDING": "WOODLANDS RING SECONDARY SCHOOL",
        "ADDRESS": "10 WOODLANDS RING ROAD WOODLANDS RING SECONDARY SCHOOL SINGAPORE 738239",
        "POSTAL": "738239",
        "X": "24308.6728630271",
        "Y": "46465.1933193207",
        "LATITUDE": "1.43648894729939",
        "LONGITUDE": "103.800148469692",
        "LONGTITUDE": "103.800148469692"
    },
    {
        "SEARCHVAL": "WOODLANDS SECONDARY SCHOOL",
        "BLK_NO": "11",
        "ROAD_NAME": "MARSILING ROAD",
        "BUILDING": "WOODLANDS SECONDARY SCHOOL",
        "ADDRESS": "11 MARSILING ROAD WOODLANDS SECONDARY SCHOOL SINGAPORE 739111",
        "POSTAL": "739111",
        "X": "21464.012295193",
        "Y": "46756.7632628027",
        "LATITUDE": "1.43912528141356",
        "LONGITUDE": "103.774586410437",
        "LONGTITUDE": "103.774586410437"
    },
    {
        "SEARCHVAL": "XINMIN SECONDARY SCHOOL",
        "BLK_NO": "11",
        "ROAD_NAME": "HOUGANG AVENUE 8",
        "BUILDING": "XINMIN SECONDARY SCHOOL",
        "ADDRESS": "11 HOUGANG AVENUE 8 XINMIN SECONDARY SCHOOL SINGAPORE 538789",
        "POSTAL": "538789",
        "X": "33534.6789847175",
        "Y": "39396.1568145063",
        "LATITUDE": "1.37255884700002",
        "LONGITUDE": "103.88305161385",
        "LONGTITUDE": "103.88305161385"
    },
    {
        "SEARCHVAL": "YIO CHU KANG SECONDARY SCHOOL",
        "BLK_NO": "3063",
        "ROAD_NAME": "ANG MO KIO AVENUE 5",
        "BUILDING": "YIO CHU KANG SECONDARY SCHOOL",
        "ADDRESS": "3063 ANG MO KIO AVENUE 5 YIO CHU KANG SECONDARY SCHOOL SINGAPORE 569868",
        "POSTAL": "569868",
        "X": "28981.3761166064",
        "Y": "39995.0998579115",
        "LATITUDE": "1.37797597740925",
        "LONGITUDE": "103.84213696352",
        "LONGTITUDE": "103.84213696352"
    },
    {
        "SEARCHVAL": "YISHUN SECONDARY SCHOOL",
        "BLK_NO": "4",
        "ROAD_NAME": "YISHUN STREET 71",
        "BUILDING": "YISHUN SECONDARY SCHOOL",
        "ADDRESS": "4 YISHUN STREET 71 YISHUN SECONDARY SCHOOL SINGAPORE 768516",
        "POSTAL": "768516",
        "X": "27493.1783263972",
        "Y": "45541.2352395374",
        "LATITUDE": "1.42813324276086",
        "LONGITUDE": "103.828764316679",
        "LONGTITUDE": "103.828764316679"
    },
    {
        "SEARCHVAL": "YISHUN TOWN SECONDARY SCHOOL",
        "BLK_NO": "6",
        "ROAD_NAME": "YISHUN STREET 21",
        "BUILDING": "YISHUN TOWN SECONDARY SCHOOL",
        "ADDRESS": "6 YISHUN STREET 21 YISHUN TOWN SECONDARY SCHOOL SINGAPORE 768610",
        "POSTAL": "768610",
        "X": "28531.4577029087",
        "Y": "46004.3591205124",
        "LATITUDE": "1.43232156717386",
        "LONGITUDE": "103.838094226361",
        "LONGTITUDE": "103.838094226361"
    },
    {
        "SEARCHVAL": "YUAN CHING SECONDARY SCHOOL",
        "BLK_NO": "103",
        "ROAD_NAME": "YUAN CHING ROAD",
        "BUILDING": "YUAN CHING SECONDARY SCHOOL",
        "ADDRESS": "103 YUAN CHING ROAD YUAN CHING SECONDARY SCHOOL SINGAPORE 618654",
        "POSTAL": "618654",
        "X": "15488.8783984222",
        "Y": "36018.0484284926",
        "LATITUDE": "1.34200635764467",
        "LONGITUDE": "103.72089870437",
        "LONGTITUDE": "103.72089870437"
    },
    {
        "SEARCHVAL": "YUHUA SECONDARY SCHOOL",
        "BLK_NO": "35",
        "ROAD_NAME": "JURONG WEST STREET 41",
        "BUILDING": "YUHUA SECONDARY SCHOOL",
        "ADDRESS": "35 JURONG WEST STREET 41 YUHUA SECONDARY SCHOOL SINGAPORE 649406",
        "POSTAL": "649406",
        "X": "15687.9488993762",
        "Y": "36590.8085158002",
        "LATITUDE": "1.34718626876968",
        "LONGITUDE": "103.722687235839",
        "LONGTITUDE": "103.722687235839"
    },
    {
        "SEARCHVAL": "8 SUMANG WALK SINGAPORE 828676",
        "BLK_NO": "8",
        "ROAD_NAME": "SUMANG WALK",
        "BUILDING": "NIL",
        "ADDRESS": "8 SUMANG WALK SINGAPORE 828676",
        "POSTAL": "828676",
        "X": "34949.8876812197",
        "Y": "43281.6645735186",
        "LATITUDE": "1.40769766446905",
        "LONGITUDE": "103.895769191005",
        "LONGTITUDE": "103.895769191005"
    },
    {
        "SEARCHVAL": "YUYING SECONDARY SCHOOL",
        "BLK_NO": "47",
        "ROAD_NAME": "HOUGANG AVENUE 1",
        "BUILDING": "YUYING SECONDARY SCHOOL",
        "ADDRESS": "47 HOUGANG AVENUE 1 YUYING SECONDARY SCHOOL SINGAPORE 538884",
        "POSTAL": "538884",
        "X": "34329.6638843575",
        "Y": "37690.788632296",
        "LATITUDE": "1.35713595302467",
        "LONGITUDE": "103.890194755287",
        "LONGTITUDE": "103.890194755287"
    },
    {
        "SEARCHVAL": "ZHENGHUA SECONDARY SCHOOL",
        "BLK_NO": "62",
        "ROAD_NAME": "BUKIT PANJANG RING ROAD",
        "BUILDING": "ZHENGHUA SECONDARY SCHOOL",
        "ADDRESS": "62 BUKIT PANJANG RING ROAD ZHENGHUA SECONDARY SCHOOL SINGAPORE 679962",
        "POSTAL": "679962",
        "X": "20453.8539943136",
        "Y": "41144.0638934448",
        "LATITUDE": "1.38836583415352",
        "LONGITUDE": "103.765510638527",
        "LONGTITUDE": "103.765510638527"
    },
    {
        "SEARCHVAL": "ZHONGHUA SECONDARY SCHOOL",
        "BLK_NO": "13",
        "ROAD_NAME": "SERANGOON AVENUE 3",
        "BUILDING": "ZHONGHUA SECONDARY SCHOOL",
        "ADDRESS": "13 SERANGOON AVENUE 3 ZHONGHUA SECONDARY SCHOOL SINGAPORE 556123",
        "POSTAL": "556123",
        "X": "32018.8531237943",
        "Y": "36725.5640310161",
        "LATITUDE": "1.34840720846208",
        "LONGITUDE": "103.869430481414",
        "LONGTITUDE": "103.869430481414"
    }
]
